[{"title":"AA LITERATURE - AA Literature","venues":"","streetAddress":"122 East 37th Street","city":"New York","state":"NY","latLong":{"lat":"40.6540144942404","long":"-73.9432341596893"},"days":"Sundays","startTime":"6:15 PM","endTime":"7:15 PM","apikey":"6a17e07541d4470480aaac6d14713970","format":"json","version":"4.01"},{"title":"BREAKFAST CLUB - Breakfast Club","venues":"","streetAddress":"30 East 35th Street","city":"New York","state":"NY","latLong":{"lat":"40.6540049272587","long":"-73.9451774713895"},"days":"Tuesdays","startTime":"7:30 AM","endTime":"8:30 AM","apikey":"6a17e07541d4470480aaac6d14713970","format":"json","version":"4.01"},{"title":"CARLYLE - Carlyle","venues":"Cathedral High School","streetAddress":"350 East 56th Street","city":"New York","state":"NY","latLong":{"lat":"40.7580414144455","long":"-73.9646083965085"},"days":"Mondays","startTime":"5:45 PM","endTime":"6:45 PM","apikey":"6a17e07541d4470480aaac6d14713970","format":"json","version":"4.01"},{"title":"CITY GROUP - Citikorp","venues":"St. Peter's Lutheran Church @ Citicorp Center","streetAddress":"619 Lexington Avenue","city":"New York","state":"NY","latLong":{"lat":"40.6894456672046","long":"-73.9367719544511"},"days":"Thursdays","startTime":"7:30 AM","endTime":"8:30 AM","apikey":"6a17e07541d4470480aaac6d14713970","format":"json","version":"4.01"},{"title":"COURAGE TO CHANGE - Courage To Change","venues":"","streetAddress":"122 East 37th Street","city":"New York","state":"NY","latLong":{"lat":"40.7484070354431","long":"-73.9788161102815"},"days":"Sundays","startTime":"12:45 PM","endTime":"1:45 PM","apikey":"6a17e07541d4470480aaac6d14713970","format":"json","version":"4.01"},{"title":"EMPIRE STATE - Empire State","venues":"J.H. Holmes Community House","streetAddress":"28 East 35th Street","city":"New York","state":"NY","latLong":{"lat":"40.7481629397889","long":"-73.9820653192304"},"days":"Mondays","startTime":"12:15 PM","endTime":"1:15 PM","apikey":"6a17e07541d4470480aaac6d14713970","format":"json","version":"4.01"},{"title":"GOTHAM - Gotham","venues":"Cathedral High School","streetAddress":"350 East 56th Street ","city":"New York","state":"NY","latLong":{"lat":"40.7580414144455","long":"-73.9646083965085"},"days":"Sundays","startTime":"5:30 PM","endTime":"6:30 PM","apikey":"6a17e07541d4470480aaac6d14713970","format":"json","version":"4.01"},{"title":"GRAND CENTRAL - Grand Central","venues":"Soldiers, Sailors, Marines & Airmen's Club","streetAddress":"283 Lexington Avenue","city":"New York","state":"NY","latLong":{"lat":"40.748","long":"-73.9784"},"days":"Mondays","startTime":"5:30 PM","endTime":"6:30 PM","apikey":"6a17e07541d4470480aaac6d14713970","format":"json","version":"4.01"},{"title":"GRUPO BRASIL -","venues":"","streetAddress":"122 East 37th Street","city":"New York","state":"NY","latLong":{"lat":"40.7484070354431","long":"-73.9788161102815"},"days":"Wednesdays","startTime":"8:00 PM","endTime":"9:00 PM","apikey":"6a17e07541d4470480aaac6d14713970","format":"json","version":"4.01"},{"title":"LIFE LINE - Life Line","venues":"St. Peter's Lutheran Church @ CitiCorp Center","streetAddress":"619 Lexington Avenue","city":"New York","state":"NY","latLong":{"lat":"40.6894456672046","long":"-73.9367719544511"},"days":"Mondays","startTime":"5:30 PM","endTime":"6:30 PM","apikey":"6a17e07541d4470480aaac6d14713970","format":"json","version":"4.01"},{"title":"LUNCH BUNCH - Lunch Bunch","venues":"Saint Agnes Church","streetAddress":"141 East 43rd Street","city":"New York","state":"NY","latLong":{"lat":"40.6523881959639","long":"-73.9371587997014"},"days":"Mondays","startTime":"12:30 PM","endTime":"1:30 PM","apikey":"6a17e07541d4470480aaac6d14713970","format":"json","version":"4.01"},{"title":"LUNCHTIME EXPRESS AT THE MUSTARD SEED -","venues":"MUSTARD SEED","streetAddress":"122 E 37TH St.","city":"New York","state":"NY","latLong":{"lat":"40.7484070354431","long":"-73.9788161102815"},"days":"Wednesdays","startTime":"12:30 PM","endTime":"1:15 PM","apikey":"6a17e07541d4470480aaac6d14713970","format":"json","version":"4.01"},{"title":"MEDITATION SATURDAY NIGHT - Meditation Saturday Night","venues":"Mustard Seed","streetAddress":"122 East 37th Street","city":"New York","state":"NY","latLong":{"lat":"40.7484070354431","long":"-73.9788161102815"},"days":"Saturdays","startTime":"7:30 PM","endTime":"","apikey":"6a17e07541d4470480aaac6d14713970","format":"json","version":"4.01"},{"title":"MONDAY MEN - Monday Men","venues":"St. Agnes Church","streetAddress":"141 East 43rd Street","city":"New York","state":"NY","latLong":{"lat":"40.6523881959639","long":"-73.9371587997014"},"days":"Mondays","startTime":"6:15 PM","endTime":"7:15 PM","apikey":"6a17e07541d4470480aaac6d14713970","format":"json","version":"4.01"},{"title":"MURRAY HILL - Murray Hill","venues":"Church of the Incarnation","streetAddress":"209 Madison Avenue","city":"New York","state":"NY","latLong":{"lat":"40.7486569855772","long":"-73.9821268769989"},"days":"Mondays","startTime":"6:15 PM","endTime":"7:15 PM","apikey":"6a17e07541d4470480aaac6d14713970","format":"json","version":"4.01"},{"title":"MUSTARD SEED - Mustard Seed     (:I)","venues":"","streetAddress":"122 East 37th Street","city":"New York","state":"NY","latLong":{"lat":"40.7484070354431","long":"-73.9788161102815"},"days":"Tuesdays","startTime":"6:15 AM","endTime":"7:15 AM","apikey":"6a17e07541d4470480aaac6d14713970","format":"json","version":"4.01"},{"title":"REBELLION DOGS -","venues":"St. Peter's Lutheran Church @ CitiCorp Center","streetAddress":"619 Lexington Avenue","city":"New York","state":"NY","latLong":{"lat":"40.6894456672046","long":"-73.9367719544511"},"days":"Tuesdays","startTime":"7:30 AM","endTime":"8:30 AM","apikey":"6a17e07541d4470480aaac6d14713970","format":"json","version":"4.01"},{"title":"SATURDAY EAST - Saturday East","venues":"Church of the Good Shepherd","streetAddress":"240 East 31st Street","city":"New York","state":"NY","latLong":{"lat":"40.6447359577704","long":"-73.9480330026725"},"days":"Saturdays","startTime":"4:00 PM","endTime":"5:00 PM","apikey":"6a17e07541d4470480aaac6d14713970","format":"json","version":"4.01"},{"title":"SATURDAY STEP - Saturday Step","venues":"The New York New Church","streetAddress":"114 East 35th Street","city":"New York","state":"NY","latLong":{"lat":"40.6525273050912","long":"-73.9450186857815"},"days":"Saturdays","startTime":"10:00 AM","endTime":"11:00 AM","apikey":"6a17e07541d4470480aaac6d14713970","format":"json","version":"4.01"},{"title":"SERENITY EAST - Serenity East","venues":"ALL SAINTS CHURCH","streetAddress":"230 East 60th Street","city":"New York","state":"NY","latLong":{"lat":"40.7618052824589","long":"-73.9654716790864"},"days":"Tuesdays","startTime":"7:30 AM","endTime":"8:30 AM","apikey":"6a17e07541d4470480aaac6d14713970","format":"json","version":"4.01"},{"title":"SERENITY EAST (:I) -","venues":"Caron Foundation","streetAddress":"244 East 58th Street","city":"New York","state":"NY","latLong":{"lat":"40.6498884631618","long":"-73.9225346093351"},"days":"Tuesdays","startTime":"5:30 PM","endTime":"6:30 PM","apikey":"6a17e07541d4470480aaac6d14713970","format":"json","version":"4.01"},{"title":"SILKWORTH WOMEN'S - Silkworth Women's","venues":"St. Peter's Lutheran Church @ CitiCorp Center","streetAddress":"619 Lexington Avenue","city":"New York","state":"NY","latLong":{"lat":"40.6894","long":"-73.9368"},"days":"Thursdays","startTime":"12:30 PM","endTime":"1:30 PM","apikey":"6a17e07541d4470480aaac6d14713970","format":"json","version":"4.01"},{"title":"ST. BART'S TWELVE-THIRTIES - St. Bart's Twelve-Thirties","venues":"St. Bartholomew's Church","streetAddress":"325 Park Avenue","city":"New York","state":"NY","latLong":{"lat":"40.7574634720886","long":"-73.9733951693811"},"days":"Fridays","startTime":"12:30 PM","endTime":"1:30 PM","apikey":"6a17e07541d4470480aaac6d14713970","format":"json","version":"4.01"},{"title":"STRAIGHT 12 -","venues":"CHURCH OF THE GOOD SHEPARD","streetAddress":"236 EAST 31st STREET ","city":"New York","state":"NY","latLong":{"lat":"40.6448441059185","long":"-73.9480450026725"},"days":"Saturdays","startTime":"6:00 PM","endTime":"7:00 PM","apikey":"6a17e07541d4470480aaac6d14713970","format":"json","version":"4.01"},{"title":"TEMPLETON - Templeton","venues":"Conservative Synagogue","streetAddress":"308 East 55th Street","city":"New York","state":"NY","latLong":{"lat":"40.7578391848115","long":"-73.9660707192178"},"days":"Wednesdays","startTime":"6:15 PM","endTime":"7:15 PM","apikey":"6a17e07541d4470480aaac6d14713970","format":"json","version":"4.01"},{"title":"TRAFALGAR - Trafalgar","venues":"The Caron Foundation","streetAddress":"244 East 58th Street","city":"New York","state":"NY","latLong":{"lat":"40.6498884631618","long":"-73.9225346093351"},"days":"Tuesdays","startTime":"6:45 PM","endTime":"7:45 PM","apikey":"6a17e07541d4470480aaac6d14713970","format":"json","version":"4.01"},{"title":"TUDOR - Tudor","venues":"Caron Foundation","streetAddress":"244 East 58th Street","city":"New York","state":"NY","latLong":{"lat":"40.7604192581185","long":"-73.9660691339251"},"days":"Thursdays","startTime":"6:15 PM","endTime":"7:15 PM","apikey":"6a17e07541d4470480aaac6d14713970","format":"json","version":"4.01"},{"title":"WOMEN'S ELEVENTH STEP - Women's Eleventh Step","venues":"","streetAddress":"109 East 50th Street","city":"New York","state":"NY","latLong":{"lat":"40.7570109520275","long":"-73.9733483642645"},"days":"Wednesdays","startTime":"5:45 PM","endTime":"7:15 PM","apikey":"6a17e07541d4470480aaac6d14713970","format":"json","version":"4.01"}]