[{"title":"A BAFFLED LOT -","venues":"Jan Hus Church","streetAddress":"351 East 74th Street","city":"New York","state":"NY","latLong":{"lat":"40.7696928502877","long":"-73.9561615460009"},"days":"Saturdays","startTime":"7:30 AM","endTime":"8:30 AM","apikey":"6a17e07541d4470480aaac6d14713970","format":"json","version":"4.01"},{"title":"A.A. TRADITIONS AND HISTORY -","venues":"Manhattan Church of Christ","streetAddress":"48 East 80th Street","city":"New York","state":"NY","latLong":{"lat":"40.7768220721206","long":"-73.9614309247863"},"days":"Tuesdays","startTime":"7:00 PM","endTime":"8:00 PM","apikey":"6a17e07541d4470480aaac6d14713970","format":"json","version":"4.01"},{"title":"ACTIVE - Active","venues":"St. Jean Baptiste Church","streetAddress":"184 East 76th Street","city":"New York","state":"NY","latLong":{"lat":"40.7729024777959","long":"-73.960301601538"},"days":"Wednesdays","startTime":"6:00 PM","endTime":"7:00 PM","apikey":"6a17e07541d4470480aaac6d14713970","format":"json","version":"4.01"},{"title":"AFTERNOON AWAKENING -","venues":"Jan Hus Church","streetAddress":"351 East 74th Street","city":"New York","state":"NY","latLong":{"lat":"40.7696928502877","long":"-73.9561615460009"},"days":"Mondays","startTime":"2:30 PM","endTime":"3:30 PM","apikey":"6a17e07541d4470480aaac6d14713970","format":"json","version":"4.01"},{"title":"ATLANTIC ELEVENTH STEP MEDITATION -","venues":"Church of the Epiphany","streetAddress":"1393 York Avenue","city":"New York","state":"NY","latLong":{"lat":"40.7683","long":"-73.9529"},"days":"Mondays","startTime":"7:15 PM","endTime":"8:15 PM","apikey":"6a17e07541d4470480aaac6d14713970","format":"json","version":"4.01"},{"title":"ATLANTIC GROUP (:I) - Atlantic    (:I)","venues":"Christ United Methodist Church","streetAddress":"520 Park Avenue","city":"New York","state":"NY","latLong":{"lat":"40.6968","long":"-73.955"},"days":"Tuesdays","startTime":"7:00 PM","endTime":"8:00 PM","apikey":"6a17e07541d4470480aaac6d14713970","format":"json","version":"4.01"},{"title":"ATLANTIC GROUP (:II) -","venues":"Archdiocian Cathedral of the Holy Trinity","streetAddress":"337 E. 74th St.","city":"New York","state":"NY","latLong":{"lat":"40.7698342644291","long":"-73.9564962732736"},"days":"Thursdays","startTime":"7:00 PM","endTime":"8:00 PM","apikey":"6a17e07541d4470480aaac6d14713970","format":"json","version":"4.01"},{"title":"ATLANTIC GROUP (:III) -","venues":"All Souls Church","streetAddress":"1157 Lexington Avenue","city":"New York","state":"NY","latLong":{"lat":"40.7754537712743","long":"-73.9583651919557"},"days":"Saturdays","startTime":"6:00 PM","endTime":"7:00 PM","apikey":"6a17e07541d4470480aaac6d14713970","format":"json","version":"4.01"},{"title":"BREAKING THROUGH - Breaking Through","venues":"Gracie Square Hospital","streetAddress":"420 East 76th Street","city":"New York","state":"NY","latLong":{"lat":"40.7701096895349","long":"-73.9536801743601"},"days":"Fridays","startTime":"6:30 PM","endTime":"7:30 PM","apikey":"6a17e07541d4470480aaac6d14713970","format":"json","version":"4.01"},{"title":"CAME TO BELIEVE - Came To Believe","venues":"Our Lady of Good Counsel Church","streetAddress":"230 East 90th Street","city":"New York","state":"NY","latLong":{"lat":"40.7810111151832","long":"-73.9514664469095"},"days":"Sundays","startTime":"3:30 PM","endTime":"4:30 PM","apikey":"6a17e07541d4470480aaac6d14713970","format":"json","version":"4.01"},{"title":"CARNEGIE HILL - Carnegie Hill","venues":"St. Thomas More Church","streetAddress":"65 East 89th Street","city":"New York","state":"NY","latLong":{"lat":"40.7825781068574","long":"-73.956669661672"},"days":"Tuesdays","startTime":"6:15 PM","endTime":"7:15 PM","apikey":"6a17e07541d4470480aaac6d14713970","format":"json","version":"4.01"},{"title":"CENTRAL - Central I","venues":"St. James Episcopal Church","streetAddress":"865 Madison Avenue","city":"New York","state":"NY","latLong":{"lat":"40.771333373478","long":"-73.9655866478562"},"days":"Sundays","startTime":"5:00 PM","endTime":"5:45 PM","apikey":"6a17e07541d4470480aaac6d14713970","format":"json","version":"4.01"},{"title":"CHAPTER FIVE - Chapter Five     (:I)","venues":"Immanuel Lutheran Church","streetAddress":"1296 Lexington Avenue","city":"New York","state":"NY","latLong":{"lat":"40.780135833909","long":"-73.9552304898083"},"days":"Mondays","startTime":"7:15 AM","endTime":"8:15 AM","apikey":"6a17e07541d4470480aaac6d14713970","format":"json","version":"4.01"},{"title":"ELEVENTH STEP AT JAN HUS - Eleventh Step At Jan Hus","venues":"Jan Hus Church","streetAddress":"351 East 74th Street","city":"New York","state":"NY","latLong":{"lat":"40.7696928502877","long":"-73.9561615460009"},"days":"Sundays","startTime":"9:00 AM","endTime":"10:00 AM","apikey":"6a17e07541d4470480aaac6d14713970","format":"json","version":"4.01"},{"title":"FEARLESS -","venues":"All Souls Uniterian Church","streetAddress":"1157 Lexington Avenue","city":"New York","state":"NY","latLong":{"lat":"40.7754","long":"-73.9584"},"days":"Fridays","startTime":"7:30 PM","endTime":"8:30 PM","apikey":"6a17e07541d4470480aaac6d14713970","format":"json","version":"4.01"},{"title":"FRIDAY CENTRAL -","venues":"Jan Hus Church","streetAddress":"351 East 74th Street","city":"New York","state":"NY","latLong":{"lat":"40.7696928502877","long":"-73.9561615460009"},"days":"Fridays","startTime":"6:30 PM","endTime":"7:30 PM","apikey":"6a17e07541d4470480aaac6d14713970","format":"json","version":"4.01"},{"title":"FRIDAY NIGHT GAY MEN & WOMEN - Friday Night Gay Men & Women","venues":"Jan Hus Church","streetAddress":"351 East 74th Street","city":"New York","state":"NY","latLong":{"lat":"40.7696928502877","long":"-73.9561615460009"},"days":"Fridays","startTime":"8:00 PM","endTime":"9:00 PM","apikey":"6a17e07541d4470480aaac6d14713970","format":"json","version":"4.01"},{"title":"FRIDAY NIGHT MEN'S STEP - Friday Night Men's Step","venues":"St. Thomas More Church Rectory","streetAddress":"65 East 89th Street","city":"New York","state":"NY","latLong":{"lat":"40.7825781068574","long":"-73.956669661672"},"days":"Fridays","startTime":"6:15 PM","endTime":"7:15 PM","apikey":"6a17e07541d4470480aaac6d14713970","format":"json","version":"4.01"},{"title":"HUMANISTS TOO -","venues":"Church of Saint Thomas Moore","streetAddress":"65 East 89th Street ","city":"New York","state":"NY","latLong":{"lat":"40.7825781068574","long":"-73.956669661672"},"days":"Mondays","startTime":"6:15 PM","endTime":"","apikey":"6a17e07541d4470480aaac6d14713970","format":"json","version":"4.01"},{"title":"I'M ALL IN -","venues":"Jan Hus Church","streetAddress":"351 East 74th Street","city":"New York","state":"NY","latLong":{"lat":"40.7696928502877","long":"-73.9561615460009"},"days":"Tuesdays","startTime":"12:30 PM","endTime":"1:30 PM","apikey":"6a17e07541d4470480aaac6d14713970","format":"json","version":"4.01"},{"title":"INTO ACTION MANHATTAN - Into Action Manhattan","venues":"St. Francis de Sales Church","streetAddress":"135 East 96th Street","city":"New York","state":"NY","latLong":{"lat":"40.7861511194995","long":"-73.9513726613579"},"days":"Wednesdays","startTime":"6:30 PM","endTime":"7:30 PM","apikey":"6a17e07541d4470480aaac6d14713970","format":"json","version":"4.01"},{"title":"KITCHEN TABLE MEETING -","venues":"Jan Hus Presbyterian Church","streetAddress":"351 East 74th Street","city":"New York","state":"NY","latLong":{"lat":"40.7696928502877","long":"-73.9561615460009"},"days":"Saturdays","startTime":"11:00 AM","endTime":"12:00 PM","apikey":"6a17e07541d4470480aaac6d14713970","format":"json","version":"4.01"},{"title":"LENOX HILL - Lenox Hill","venues":"Church of the Heavenly Rest","streetAddress":"2 East 90th Street","city":"New York","state":"NY","latLong":{"lat":"40.7840115307841","long":"-73.9585847103751"},"days":"Mondays","startTime":"7:00 PM","endTime":"8:00 PM","apikey":"6a17e07541d4470480aaac6d14713970","format":"json","version":"4.01"},{"title":"LEX 80 STEP -","venues":"All Souls Uniterian Church","streetAddress":"1157 Lexington Avenue","city":"New York","state":"NY","latLong":{"lat":"40.7754","long":"-73.9584"},"days":"Wednesdays","startTime":"6:30 PM","endTime":"7:30 PM","apikey":"6a17e07541d4470480aaac6d14713970","format":"json","version":"4.01"},{"title":"LIVE AND LET LIVE - Live And Let Live","venues":"Gracie Square Hospital","streetAddress":"420 East 76th Street","city":"New York","state":"NY","latLong":{"lat":"40.7701096895349","long":"-73.9536801743601"},"days":"Tuesdays","startTime":"7:00 PM","endTime":"8:00 PM","apikey":"6a17e07541d4470480aaac6d14713970","format":"json","version":"4.01"},{"title":"MADISON 73 - Madison 73","venues":"Jan Hus Presbyterian Church","streetAddress":"351 East 74th Street","city":"New York","state":"NY","latLong":{"lat":"40.7696928502877","long":"-73.9561615460009"},"days":"Saturdays","startTime":"7:00 PM","endTime":"8:00 PM","apikey":"6a17e07541d4470480aaac6d14713970","format":"json","version":"4.01"},{"title":"MEDITATION (EXPECT MIRACLES) - Meditation (Expect Miracles)","venues":"Jan Hus Church","streetAddress":"351 East 74th Street","city":"New York","state":"NY","latLong":{"lat":"40.7696928502877","long":"-73.9561615460009"},"days":"Thursdays","startTime":"11:00 AM","endTime":"12:00 PM","apikey":"6a17e07541d4470480aaac6d14713970","format":"json","version":"4.01"},{"title":"MEN'S NYC BIG BOOK STEP STUDY -","venues":"Philomathist Center","streetAddress":"1285 Madison Avenue","city":"New York","state":"NY","latLong":{"lat":"40.7843271566301","long":"-73.9560938594834"},"days":"Wednesdays","startTime":"7:00 PM","endTime":"8:30 PM","apikey":"6a17e07541d4470480aaac6d14713970","format":"json","version":"4.01"},{"title":"METROPOLITAN - Metropolitan","venues":"St. Ignatius Loyola School","streetAddress":"48 East 84th Street","city":"New York","state":"NY","latLong":{"lat":"40.7793609621452","long":"-73.9595772935813"},"days":"Saturdays","startTime":"3:15 PM","endTime":"4:15 PM","apikey":"6a17e07541d4470480aaac6d14713970","format":"json","version":"4.01"},{"title":"MONDAY EAST TOPIC - Monday East Topic","venues":"St. Stephen of Hungary Church","streetAddress":"408 East 82nd Street","city":"New York","state":"NY","latLong":{"lat":"40.7741274706806","long":"-73.9511027458637"},"days":"Mondays","startTime":"7:00 PM","endTime":"8:00 PM","apikey":"6a17e07541d4470480aaac6d14713970","format":"json","version":"4.01"},{"title":"MONDAY WOMEN -","venues":"Jan Hus Church","streetAddress":"351 East 74th Street","city":"New York","state":"NY","latLong":{"lat":"40.7696928502877","long":"-73.9561615460009"},"days":"Mondays","startTime":"7:15 PM","endTime":"8:15 PM","apikey":"6a17e07541d4470480aaac6d14713970","format":"json","version":"4.01"},{"title":"MORNING REFLECTIONS -","venues":"Jan Hus Church","streetAddress":"351 East 74th Street","city":"New York","state":"NY","latLong":{"lat":"40.7696928502877","long":"-73.9561615460009"},"days":"Wednesdays","startTime":"9:30 AM","endTime":"10:30 AM","apikey":"6a17e07541d4470480aaac6d14713970","format":"json","version":"4.01"},{"title":"NEW CHOICES - New Choices","venues":"Congregational Kehilath Jeshurun","streetAddress":"125 East 85th Street","city":"New York","state":"NY","latLong":{"lat":"40.779171458173","long":"-73.9566990114508"},"days":"Mondays","startTime":"6:30 PM","endTime":"7:30 PM","apikey":"6a17e07541d4470480aaac6d14713970","format":"json","version":"4.01"},{"title":"OPEN BOOK -","venues":"Jan Hus Church","streetAddress":"351 East 74th Street","city":"New York","state":"NY","latLong":{"lat":"40.7696928502877","long":"-73.9561615460009"},"days":"Mondays","startTime":"7:15 PM","endTime":"8:15 PM","apikey":"6a17e07541d4470480aaac6d14713970","format":"json","version":"4.01"},{"title":"OUR PRIMARY PURPOSE -","venues":"Jan Hus Church","streetAddress":"351 East 74th Street","city":"New York","state":"NY","latLong":{"lat":"40.7696928502877","long":"-73.9561615460009"},"days":"Saturdays","startTime":"9:30 AM","endTime":"10:30 AM","apikey":"6a17e07541d4470480aaac6d14713970","format":"json","version":"4.01"},{"title":"PARK BENCH   (:II) -","venues":"St. James Church","streetAddress":"865 Madison Avenue","city":"New York","state":"NY","latLong":{"lat":"40.7713","long":"-73.9656"},"days":"Wednesdays","startTime":"12:30 PM","endTime":"1:30 PM","apikey":"6a17e07541d4470480aaac6d14713970","format":"json","version":"4.01"},{"title":"PARK MADISON - Park Madison","venues":"Brick Church Parish House","streetAddress":"62 East 92nd Street","city":"New York","state":"NY","latLong":{"lat":"40.7843589236057","long":"-73.95552298444"},"days":"Fridays","startTime":"6:45 PM","endTime":"7:45 PM","apikey":"6a17e07541d4470480aaac6d14713970","format":"json","version":"4.01"},{"title":"PERSEVERANCE - Perseverance","venues":"Jan Hus Church","streetAddress":"351 East 74th Street","city":"New York","state":"NY","latLong":{"lat":"40.7696928502877","long":"-73.9561615460009"},"days":"Saturdays","startTime":"11:00 AM","endTime":"12:00 PM","apikey":"6a17e07541d4470480aaac6d14713970","format":"json","version":"4.01"},{"title":"RECOVERY ROOM - Recovery Room","venues":"St. Joseph's School","streetAddress":"420 East 87th Street","city":"New York","state":"NY","latLong":{"lat":"40.7772735074771","long":"-73.9484486458256"},"days":"Wednesdays","startTime":"7:00 PM","endTime":"8:00 PM","apikey":"6a17e07541d4470480aaac6d14713970","format":"json","version":"4.01"},{"title":"RENEWAL EAST -","venues":"Central Presbyterian Church","streetAddress":"593 Park Avenue","city":"New York","state":"NY","latLong":{"lat":"40.7658492755849","long":"-73.9673399922282"},"days":"Wednesdays","startTime":"6:30 PM","endTime":"7:30 PM","apikey":"6a17e07541d4470480aaac6d14713970","format":"json","version":"4.01"},{"title":"RENEWAL NORTH -","venues":"St. Thomas More Church","streetAddress":"65 East 89th Street","city":"New York","state":"NY","latLong":{"lat":"40.6512891458602","long":"-73.9194885249005"},"days":"Thursdays","startTime":"6:30 PM","endTime":"7:30 PM","apikey":"6a17e07541d4470480aaac6d14713970","format":"json","version":"4.01"},{"title":"RHINELANDER - Rhinelander","venues":"St. James Episcopal Church","streetAddress":"865 Madison Avenue","city":"New York","state":"NY","latLong":{"lat":"40.771333373478","long":"-73.9655866478562"},"days":"Mondays","startTime":"6:00 PM","endTime":"7:00 PM","apikey":"6a17e07541d4470480aaac6d14713970","format":"json","version":"4.01"},{"title":"ROOSEVELT ISLAND SERENITY -","venues":"","streetAddress":"Church of the Good Shepard","city":"New York","state":"NY","latLong":{"lat":"40.6639307188879","long":"-73.9382749875207"},"days":"Saturdays","startTime":"6:30 PM","endTime":"7:30 PM","apikey":"6a17e07541d4470480aaac6d14713970","format":"json","version":"4.01"},{"title":"SEVENTY-NINTH STREET WORKSHOP - Seventy-Ninth Street Workshop    (:I)","venues":"St. Monica's Church","streetAddress":"413 East 79th Street","city":"New York","state":"NY","latLong":{"lat":"40.7723031543769","long":"-73.9523668002645"},"days":"Tuesdays","startTime":"6:00 AM","endTime":"7:00 AM","apikey":"6a17e07541d4470480aaac6d14713970","format":"json","version":"4.01"},{"title":"SOBER WOMEN - Sober Women","venues":"Jan Hus Church","streetAddress":"351 East 74th Street","city":"New York","state":"NY","latLong":{"lat":"40.7696928502877","long":"-73.9561615460009"},"days":"Saturdays","startTime":"9:15 AM","endTime":"10:15 AM","apikey":"6a17e07541d4470480aaac6d14713970","format":"json","version":"4.01"},{"title":"STEP BY STEP - Step By Step","venues":"New York Blood Center","streetAddress":"310 East 67th Street","city":"New York","state":"NY","latLong":{"lat":"40.7654252580644","long":"-73.9604736729911"},"days":"Saturdays","startTime":"10:00 AM","endTime":"11:00 AM","apikey":"6a17e07541d4470480aaac6d14713970","format":"json","version":"4.01"},{"title":"SUNDAY ON 70TH - Sunday On 70th","venues":"Lenox Hill Neighborhood House","streetAddress":"331 E 70th St","city":"New York","state":"NY","latLong":{"lat":"40.7672680018812","long":"-73.9585554286266"},"days":"Sundays","startTime":"10:00 AM","endTime":"11:00 AM","apikey":"6a17e07541d4470480aaac6d14713970","format":"json","version":"4.01"},{"title":"SUTTON - Sutton","venues":"Church of St. Catherine of Siena","streetAddress":"411 East 68th Street","city":"New York","state":"NY","latLong":{"lat":"40.7652239673107","long":"-73.9575950012117"},"days":"Saturdays","startTime":"6:30 PM","endTime":"7:30 PM","apikey":"6a17e07541d4470480aaac6d14713970","format":"json","version":"4.01"},{"title":"THREE TWELVES - Three Twelves","venues":"Church of the Heavenly Rest","streetAddress":"2 East 90th Street","city":"New York","state":"NY","latLong":{"lat":"40.7840115307841","long":"-73.9585847103751"},"days":"Tuesdays","startTime":"12:00 PM","endTime":"1:00 PM","apikey":"6a17e07541d4470480aaac6d14713970","format":"json","version":"4.01"},{"title":"TRINITY - Trinity","venues":"Holy Trinity Church","streetAddress":"341 East 87th Street","city":"New York","state":"NY","latLong":{"lat":"40.7782257082245","long":"-73.9502443001809"},"days":"Fridays","startTime":"7:00 PM","endTime":"8:00 PM","apikey":"6a17e07541d4470480aaac6d14713970","format":"json","version":"4.01"},{"title":"WE HUMANISTS - We Humanists","venues":"Jan Hus Church","streetAddress":"351 East 74th Street","city":"New York","state":"NY","latLong":{"lat":"40.7696928502877","long":"-73.9561615460009"},"days":"Wednesdays","startTime":"6:15 PM","endTime":"7:15 PM","apikey":"6a17e07541d4470480aaac6d14713970","format":"json","version":"4.01"},{"title":"WEDNESDAY EAST ON THURSDAY - Wednesday East","venues":"Jan Hus Church","streetAddress":"351 East 74th Street","city":"New York","state":"NY","latLong":{"lat":"40.7696928502877","long":"-73.9561615460009"},"days":"Thursdays","startTime":"8:00 PM","endTime":"9:00 PM","apikey":"6a17e07541d4470480aaac6d14713970","format":"json","version":"4.01"},{"title":"YORKVILLE-BUTTERFIELD - Yorkville","venues":"Jan Hus Church","streetAddress":"351 East 74th Street","city":"New York","state":"NY","latLong":{"lat":"40.7696928502877","long":"-73.9561615460009"},"days":"Thursdays","startTime":"8:00 PM","endTime":"9:00 PM","apikey":"6a17e07541d4470480aaac6d14713970","format":"json","version":"4.01"}]