[{"title":"A CHANCE TO LIVE AGAIN - A Chance To Live Again","venues":"SRO Building","streetAddress":"109 West 129th Street","city":"New York","state":"NY","latLong":{"lat":"40.8105033439451","long":"-73.9438349756133"},"days":"Wednesdays","startTime":"6:00 PM","endTime":"7:00 PM","apikey":"6a17e07541d4470480aaac6d14713970","format":"json","version":"4.01"},{"title":"AA IT WORKS  II - AA It Works II","venues":"Union Baptist Church","streetAddress":"240 West 145th Street","city":"New York","state":"NY","latLong":{"lat":"40.8220449603096","long":"-73.9402738669626"},"days":"Wednesdays","startTime":"10:00 AM","endTime":"11:00 AM","apikey":"6a17e07541d4470480aaac6d14713970","format":"json","version":"4.01"},{"title":"ATTITUDE ADJUSTMENT - Attitude Adjustment","venues":"Our Lady of Lourdes Church","streetAddress":"469 West 142nd Street","city":"New York","state":"NY","latLong":{"lat":"40.8232200234845","long":"-73.9485449135295"},"days":"Saturdays","startTime":"7:30 AM","endTime":"8:30 AM","apikey":"6a17e07541d4470480aaac6d14713970","format":"json","version":"4.01"},{"title":"CONVENT -","venues":"St. Phillip Church","streetAddress":"204 West 134th Street","city":"New York","state":"NY","latLong":{"lat":"40.8146053686072","long":"-73.9443570754889"},"days":"Saturdays","startTime":"11:30 AM","endTime":"1:00 PM","apikey":"6a17e07541d4470480aaac6d14713970","format":"json","version":"4.01"},{"title":"FELLOWSHIP AT NOON - Fellowship At Noon","venues":"Spiritual Renewal Church","streetAddress":"2044 Adam Clayton Powell Blvd.","city":"New York","state":"NY","latLong":{"lat":"40.8072665297278","long":"-73.9499061022154"},"days":"Mondays","startTime":"12:15 PM","endTime":"1:15 PM","apikey":"6a17e07541d4470480aaac6d14713970","format":"json","version":"4.01"},{"title":"GRUPO TRASMITELO -","venues":"","streetAddress":"469 West 142nd Street","city":"New York","state":"NY","latLong":{"lat":"40.8232200234845","long":"-73.9485449135295"},"days":"Thursdays","startTime":"8:00 PM","endTime":"9:00 PM","apikey":"6a17e07541d4470480aaac6d14713970","format":"json","version":"4.01"},{"title":"HARLEM HUMANISTS -","venues":"St. Mary's Episcopal","streetAddress":"521 W 126th St","city":"New York","state":"NY","latLong":{"lat":"40.8144929933342","long":"-73.9558896362264"},"days":"Mondays","startTime":"12:00 PM","endTime":"1:00 PM","apikey":"6a17e07541d4470480aaac6d14713970","format":"json","version":"4.01"},{"title":"K.I.S.S. - Keep It Simple (Kiss)","venues":"SRO Building Community Room","streetAddress":"109 West 129th Street","city":"New York","state":"NY","latLong":{"lat":"40.8105033439451","long":"-73.9438349756133"},"days":"Sundays","startTime":"5:30 PM","endTime":"6:30 PM","apikey":"6a17e07541d4470480aaac6d14713970","format":"json","version":"4.01"},{"title":"LEARNING TO LIVE SOBER - Learning To Live Sober","venues":"Our Lady of Lourdes","streetAddress":"469 West 142nd Street","city":"New York","state":"NY","latLong":{"lat":"40.8232200234845","long":"-73.9485449135295"},"days":"Thursdays","startTime":"6:00 PM","endTime":"7:00 PM","apikey":"6a17e07541d4470480aaac6d14713970","format":"json","version":"4.01"},{"title":"LIVING CLEAN AND SOBER ON 121st STREET - Living Clean And Sober On 121st Street","venues":"","streetAddress":"2044 Seventh Avenue","city":"New York","state":"NY","latLong":{"lat":"40.8071759186691","long":"-73.9497519327616"},"days":"Sundays","startTime":"6:00 PM","endTime":"7:30 PM","apikey":"6a17e07541d4470480aaac6d14713970","format":"json","version":"4.01"},{"title":"MEDITATION COMES TO HARLEM - Meditation Comes To Harlem","venues":"S.A.G.E.","streetAddress":"127 West 127th Street","city":"New York","state":"NY","latLong":{"lat":"40.8094766772235","long":"-73.9452613355488"},"days":"Mondays","startTime":"4:30 PM","endTime":"5:30 PM","apikey":"6a17e07541d4470480aaac6d14713970","format":"json","version":"4.01"},{"title":"MID-HARLEM - Mid-Harlem","venues":"Grace Congregational Baptist Church","streetAddress":"310 West 139th Street","city":"New York","state":"NY","latLong":{"lat":"40.8190256453939","long":"-73.9448681362397"},"days":"Mondays","startTime":"7:00 PM","endTime":"8:00 PM","apikey":"6a17e07541d4470480aaac6d14713970","format":"json","version":"4.01"},{"title":"MONDAY NIGHT CHALLENGE - Monday Night Challenge","venues":"St. James Church","streetAddress":"409 West 141st Street","city":"New York","state":"NY","latLong":{"lat":"40.8215326572652","long":"-73.9464830279892"},"days":"Mondays","startTime":"7:00 PM","endTime":"8:00 PM","apikey":"6a17e07541d4470480aaac6d14713970","format":"json","version":"4.01"},{"title":"PRIMARY PURPOSE - Primary Purpose","venues":"Riverside Church","streetAddress":"91 Claremont Avenue","city":"New York","state":"NY","latLong":{"lat":"40.812","long":"-73.9625"},"days":"Sundays","startTime":"3:00 PM","endTime":"4:00 PM","apikey":"6a17e07541d4470480aaac6d14713970","format":"json","version":"4.01"},{"title":"PROMISES TWO FOR ONE - Promises Two For One","venues":"Upper Manhattan Mental Health Center","streetAddress":"1727 Amsterdam Avenue","city":"New York","state":"NY","latLong":{"lat":"40.8255371320577","long":"-73.9471630832303"},"days":"Sundays","startTime":"9:30 AM","endTime":"10:30 AM","apikey":"6a17e07541d4470480aaac6d14713970","format":"json","version":"4.01"},{"title":"REALITY CHECK - Reality Check","venues":"Our Lady of Lourdes Church","streetAddress":"469 West 142nd Street","city":"New York","state":"NY","latLong":{"lat":"40.8232200234845","long":"-73.9485449135295"},"days":"Saturdays","startTime":"5:00 PM","endTime":"6:00 PM","apikey":"6a17e07541d4470480aaac6d14713970","format":"json","version":"4.01"},{"title":"RIVERSIDE - Riverside","venues":"Riverside Church","streetAddress":"91 Claremont Avenue","city":"New York","state":"NY","latLong":{"lat":"40.812","long":"-73.9625"},"days":"Mondays","startTime":"7:00 PM","endTime":"8:00 PM","apikey":"6a17e07541d4470480aaac6d14713970","format":"json","version":"4.01"},{"title":"RIVERTON - Riverton","venues":"St. Aloysius School","streetAddress":"219 West 132nd Street","city":"New York","state":"NY","latLong":{"lat":"40.8136938017217","long":"-73.9455988432903"},"days":"Saturdays","startTime":"3:00 PM","endTime":"4:00 PM","apikey":"6a17e07541d4470480aaac6d14713970","format":"json","version":"4.01"},{"title":"SALEM - Salem","venues":"Salem United Methodist Church Community Center","streetAddress":"211 West 129th Street","city":"New York","state":"NY","latLong":{"lat":"40.811646918986","long":"-73.9465692736586"},"days":"Wednesdays","startTime":"7:30 PM","endTime":"8:30 PM","apikey":"6a17e07541d4470480aaac6d14713970","format":"json","version":"4.01"},{"title":"SOBER ADULT MEN - Sober Adult Men","venues":"Convent Baptist Church Education Building","streetAddress":"425 West 144th Street","city":"New York","state":"NY","latLong":{"lat":"40.8238859925299","long":"-73.9462723904462"},"days":"Wednesdays","startTime":"7:00 PM","endTime":"8:00 PM","apikey":"6a17e07541d4470480aaac6d14713970","format":"json","version":"4.01"},{"title":"ST. NICHOLAS - St. Nicholas","venues":"St. Phillip's Church","streetAddress":"204 West 134th Street","city":"New York","state":"NY","latLong":{"lat":"40.8146053686072","long":"-73.9443570754889"},"days":"Sundays","startTime":"4:00 PM","endTime":"5:00 PM","apikey":"6a17e07541d4470480aaac6d14713970","format":"json","version":"4.01"},{"title":"STEPS 3 and 11 - Steps Three-Eleven","venues":"Harlem Hospital King Pavilion","streetAddress":"506 Lenox Avenue","city":"New York","state":"NY","latLong":{"lat":"40.8143540280369","long":"-73.9403080272408"},"days":"Sundays","startTime":"2:00 PM","endTime":"3:00 PM","apikey":"6a17e07541d4470480aaac6d14713970","format":"json","version":"4.01"},{"title":"SUGAR HILL -","venues":"Council Center for Problems of Living","streetAddress":"1727 Amsterdam Avenue","city":"New York","state":"NY","latLong":{"lat":"40.8255371320577","long":"-73.9471630832303"},"days":"Fridays","startTime":"5:30 PM","endTime":"6:30 PM","apikey":"6a17e07541d4470480aaac6d14713970","format":"json","version":"4.01"},{"title":"TUESDAY BIG BOOK STUDY - Tuesday Big Book Study","venues":"","streetAddress":"1854 Amsterdam Avenue","city":"New York","state":"NY","latLong":{"lat":"40.8295984557205","long":"-73.9446555334471"},"days":"Tuesdays","startTime":"6:00 PM","endTime":"7:00 PM","apikey":"6a17e07541d4470480aaac6d14713970","format":"json","version":"4.01"},{"title":"UPTOWN BIG BOOK WORKSHOP -","venues":"Our Lady of Lourdes Church","streetAddress":"469 West 142nd Street","city":"New York","state":"NY","latLong":{"lat":"40.8232200234845","long":"-73.9485449135295"},"days":"Saturdays","startTime":"9:30 AM","endTime":"11:00 AM","apikey":"6a17e07541d4470480aaac6d14713970","format":"json","version":"4.01"},{"title":"YOU MAY CARE AFTER - You May Care After","venues":"Metropolitan AME Church","streetAddress":"58","city":"New York","state":"NY","latLong":{"lat":"40.6639307188879","long":"-73.9382749875207"},"days":"Tuesdays","startTime":"6:30 PM","endTime":"7:30 PM","apikey":"6a17e07541d4470480aaac6d14713970","format":"json","version":"4.01"}]