[{"title":"125 - TWO FOR ONE -","venues":"Harlem Children's Zone Admin. Offices","streetAddress":"35 East 125 Street","city":"New York","state":"NY","latLong":{"lat":"40.8059276652577","long":"-73.9408673127926"},"days":"Saturdays","startTime":"4:15 PM","endTime":"5:30 PM","apikey":"6a17e07541d4470480aaac6d14713970","format":"json","version":"4.01"},{"title":"EAST HARLEM - East Harlem","venues":"Peter Jay Sharpe Building","streetAddress":"223 East 117th Street","city":"New York","state":"NY","latLong":{"lat":"40.7984929663362","long":"-73.9389774473402"},"days":"Tuesdays","startTime":"6:30 PM","endTime":"7:30 PM","apikey":"6a17e07541d4470480aaac6d14713970","format":"json","version":"4.01"},{"title":"GRUPO NUEVA VIDA - Grupo Nueva Vida","venues":"","streetAddress":"2126 2nd Avenue","city":"New York","state":"NY","latLong":{"lat":"40.7926447124665","long":"-73.940850658861"},"days":"Sundays","startTime":"5:00 PM","endTime":"6:00 PM","apikey":"6a17e07541d4470480aaac6d14713970","format":"json","version":"4.01"},{"title":"HARLEM 1 PM RECOVERY - Harlem 1 PM Recovery","venues":"Veterans Residence","streetAddress":"22 East 119th Street","city":"New York","state":"NY","latLong":{"lat":"40.8021918133913","long":"-73.9443165073746"},"days":"Sundays","startTime":"1:00 PM","endTime":"2:00 PM","apikey":"6a17e07541d4470480aaac6d14713970","format":"json","version":"4.01"}]