[{"title":"A NEW WAY OF LIVING - A New Way Of Living","venues":"Columbia Presbyterian Hospital","streetAddress":"701 West 168th Street @ Fort Washington Avenue","city":"New York","state":"NY","latLong":{"lat":"40.8421349959684","long":"-73.9420058396877"},"days":"Thursdays","startTime":"12:00 PM","endTime":"1:00 PM","apikey":"6a17e07541d4470480aaac6d14713970","format":"json","version":"4.01"},{"title":"BRIDGE TO SOBRIETY (:I) - Bridge To Sobriety","venues":"Holy Rood Church","streetAddress":"715 West 179th Street","city":"New York","state":"NY","latLong":{"lat":"40.8490796467369","long":"-73.9373313893221"},"days":"Mondays","startTime":"10:00 AM","endTime":"11:00 AM","apikey":"6a17e07541d4470480aaac6d14713970","format":"json","version":"4.01"},{"title":"BRIDGE TO SOBRIETY (:II) -","venues":"Holy Rood Church","streetAddress":"715 West 179th Street","city":"New York","state":"NY","latLong":{"lat":"40.8490796467369","long":"-73.9373313893221"},"days":"Sundays","startTime":"10:00 AM","endTime":"11:00 AM","apikey":"6a17e07541d4470480aaac6d14713970","format":"json","version":"4.01"},{"title":"DYCKMAN - Dyckman","venues":"St. Jude's School","streetAddress":"431 West 204th Street","city":"New York","state":"NY","latLong":{"lat":"40.8620966104922","long":"-73.9190004613749"},"days":"Sundays","startTime":"12:00 PM","endTime":"1:00 PM","apikey":"6a17e07541d4470480aaac6d14713970","format":"json","version":"4.01"},{"title":"FOUND-A-WAY - Found-A-Way","venues":"Church of the Intercession","streetAddress":"550 West 155th Street","city":"New York","state":"NY","latLong":{"lat":"40.8320961144213","long":"-73.944465684352"},"days":"Saturdays","startTime":"12:30 PM","endTime":"2:00 PM","apikey":"6a17e07541d4470480aaac6d14713970","format":"json","version":"4.01"},{"title":"GRUPO DESPERTAR - Grupo Despertar","venues":"Casita Esperanza","streetAddress":"557 West 156th Street","city":"New York","state":"NY","latLong":{"lat":"40.8330065334804","long":"-73.9440819529521"},"days":"Wednesdays","startTime":"8:00 PM","endTime":"10:00 PM","apikey":"6a17e07541d4470480aaac6d14713970","format":"json","version":"4.01"},{"title":"GRUPO LA FLAMA PANAMERICANA - Grupo La Flama Panamericana","venues":"","streetAddress":"35 Thayer Street","city":"New York","state":"NY","latLong":{"lat":"40.8626229492642","long":"-73.9263833803336"},"days":"Sundays","startTime":"5:00 PM","endTime":"7:00 PM","apikey":"6a17e07541d4470480aaac6d14713970","format":"json","version":"4.01"},{"title":"GRUPO LIBERTAD - Grupo Libertad","venues":"Episcopal Holy Rood Church","streetAddress":"715 West 179th Street","city":"New York","state":"NY","latLong":{"lat":"40.8490796467369","long":"-73.9373313893221"},"days":"Tuesdays","startTime":"7:30 PM","endTime":"8:30 PM","apikey":"6a17e07541d4470480aaac6d14713970","format":"json","version":"4.01"},{"title":"GRUPO RECUPERACION - Grupo Recuperacion","venues":"Church Santa Rosa de Lima","streetAddress":"502 West165th Street","city":"New York","state":"NY","latLong":{"lat":"40.6639307188879","long":"-73.9382749875207"},"days":"Sundays","startTime":"2:30 PM","endTime":"3:30 PM","apikey":"6a17e07541d4470480aaac6d14713970","format":"json","version":"4.01"},{"title":"GRUPO UN NUEVO AMANECER - Grupo Un Nuevo Amanecer","venues":"Our Lady Queen of Martyrs","streetAddress":"91 Arden Street","city":"New York","state":"NY","latLong":{"lat":"40.8639155612836","long":"-73.9282546578791"},"days":"Mondays","startTime":"8:00 PM","endTime":"9:00 PM","apikey":"6a17e07541d4470480aaac6d14713970","format":"json","version":"4.01"},{"title":"HAPPY DESTINY -","venues":"Holy Trinity Episcopal Church","streetAddress":"20 Cumming Street","city":"New York","state":"NY","latLong":{"lat":"40.8665","long":"-73.9265"},"days":"Sundays","startTime":"7:30 PM","endTime":"8:30 PM","apikey":"6a17e07541d4470480aaac6d14713970","format":"json","version":"4.01"},{"title":"INWOOD FORT TRYON - Inwood-Ft. Tryon","venues":"Mount Washington Presbyterian Church","streetAddress":"84 Vermilyea Avenue","city":"New York","state":"NY","latLong":{"lat":"40.8659683152661","long":"-73.923146151519"},"days":"Saturdays","startTime":"11:00 AM","endTime":"12:00 PM","apikey":"6a17e07541d4470480aaac6d14713970","format":"json","version":"4.01"},{"title":"ISHAM PARK - Isham Park","venues":"Church of the Good Shepherd","streetAddress":"620 Isham Street","city":"New York","state":"NY","latLong":{"lat":"40.8692532379724","long":"-73.9206625253877"},"days":"Mondays","startTime":"8:00 PM","endTime":"9:00 PM","apikey":"6a17e07541d4470480aaac6d14713970","format":"json","version":"4.01"},{"title":"PROGRESS NOT PERFECTION -","venues":"COATHA Church on the Hill Senior Center","streetAddress":"2005 Amsterdam Avenue","city":"New York","state":"NY","latLong":{"lat":"40.8342635888105","long":"-73.9407982066313"},"days":"Fridays","startTime":"7:30 PM","endTime":"8:30 PM","apikey":"6a17e07541d4470480aaac6d14713970","format":"json","version":"4.01"},{"title":"THE MEN UPSTAIRS -","venues":"Our Saviour's Atonement Lutheran Church","streetAddress":"178 Bennett Avenue","city":"New York","state":"NY","latLong":{"lat":"40.856","long":"-73.9343"},"days":"Mondays","startTime":"8:00 PM","endTime":"9:00 PM","apikey":"6a17e07541d4470480aaac6d14713970","format":"json","version":"4.01"},{"title":"THE MISSING LINK - Missing Link","venues":"Our Saviour's Atonement Church","streetAddress":"178 Bennett Avenue","city":"New York","state":"NY","latLong":{"lat":"40.8560152221363","long":"-73.9342776437758"},"days":"Fridays","startTime":"7:00 PM","endTime":"8:00 PM","apikey":"6a17e07541d4470480aaac6d14713970","format":"json","version":"4.01"},{"title":"UPPER MANHATTAN - Upper Manhattan","venues":"Our Lady Queen of Martyrs","streetAddress":"91 Arden Street","city":"New York","state":"NY","latLong":{"lat":"40.8639155612836","long":"-73.9282546578791"},"days":"Thursdays","startTime":"7:30 PM","endTime":"8:30 PM","apikey":"6a17e07541d4470480aaac6d14713970","format":"json","version":"4.01"},{"title":"UPTOWN SATURDAY NIGHT - Uptown Saturday Night","venues":"Holy Trinity Church","streetAddress":"20 Cummings Street","city":"New York","state":"NY","latLong":{"lat":"40.8664805601797","long":"-73.9264534882199"},"days":"Saturdays","startTime":"7:00 PM","endTime":"8:00 PM","apikey":"6a17e07541d4470480aaac6d14713970","format":"json","version":"4.01"},{"title":"WASHINGTON HEIGHTS                  (:I) - Washington Heights    (:I)","venues":"Holy Rood Church","streetAddress":"715 West 179th Street","city":"New York","state":"NY","latLong":{"lat":"40.8490796467369","long":"-73.9373313893221"},"days":"Tuesdays","startTime":"7:30 PM","endTime":"8:30 PM","apikey":"6a17e07541d4470480aaac6d14713970","format":"json","version":"4.01"},{"title":"WASHINGTON HEIGHTS                 (:II) - Washington Heights    (:II)","venues":"Cornerstone Center","streetAddress":"189th Street & Bennett Avenue","city":"New York","state":"NY","latLong":{"lat":"40.6639307188879","long":"-73.9382749875207"},"days":"Thursdays","startTime":"7:30 PM","endTime":"8:30 PM","apikey":"6a17e07541d4470480aaac6d14713970","format":"json","version":"4.01"},{"title":"WHAT WE ARE LIKE NOW -","venues":"The Corner Stone Center","streetAddress":"178 Bennett Avenue","city":"New York","state":"NY","latLong":{"lat":"40.856","long":"-73.9343"},"days":"Sundays","startTime":"6:00 PM","endTime":"7:00 PM","apikey":"6a17e07541d4470480aaac6d14713970","format":"json","version":"4.01"},{"title":"WOMEN'S NITE - Women's Nite","venues":"Cornerstone Center","streetAddress":"178 Bennett Avenue","city":"New York","state":"NY","latLong":{"lat":"40.8560152221363","long":"-73.9342776437758"},"days":"Mondays","startTime":"7:30 PM","endTime":"8:30 PM","apikey":"6a17e07541d4470480aaac6d14713970","format":"json","version":"4.01"}]