[{"title":"A DESIGN FOR LIVING -","venues":"St Andrews Church","streetAddress":"20 Cardinal Hayes Place","city":"New York","state":"NY","latLong":{"lat":"40.7132597018695","long":"-74.0023994478748"},"days":"Thursdays","startTime":"7:00 AM","endTime":"8:00 AM","apikey":"6a17e07541d4470480aaac6d14713970","format":"json","version":"4.01"},{"title":"CHAMBERS STREET - A BRIDGE BACK - Chambers Street - A Bridge Back","venues":"St. Andrew's Church","streetAddress":"20 Cardinal Hayes Place","city":"New York","state":"NY","latLong":{"lat":"40.7133","long":"-74.0024"},"days":"Mondays","startTime":"12:15 PM","endTime":"1:15 PM","apikey":"6a17e07541d4470480aaac6d14713970","format":"json","version":"4.01"},{"title":"CHINATOWN - Chinatown","venues":"Church of the Transfiguration","streetAddress":"29 Mott Street","city":"New York","state":"NY","latLong":{"lat":"40.7148","long":"-73.999"},"days":"Tuesdays","startTime":"6:30 PM","endTime":"7:30 PM","apikey":"6a17e07541d4470480aaac6d14713970","format":"json","version":"4.01"},{"title":"DOWNTOWN -","venues":"St. Margaret's Residence","streetAddress":"49 Fulton Street","city":"New York","state":"NY","latLong":{"lat":"40.7080475730195","long":"-74.0042375398091"},"days":"Mondays","startTime":"7:00 PM","endTime":"8:00 PM","apikey":"6a17e07541d4470480aaac6d14713970","format":"json","version":"4.01"},{"title":"EXCHANGE VIEWS @ JOHN STREET CHURCH -","venues":"","streetAddress":"44 John Street","city":"New York","state":"NY","latLong":{"lat":"40.7091814855046","long":"-74.0080691242279"},"days":"Mondays","startTime":"12:15 PM","endTime":"1:15 PM","apikey":"6a17e07541d4470480aaac6d14713970","format":"json","version":"4.01"},{"title":"EXCHANGE VIEWS @ ST. MARGARET'S HOUSE -","venues":"","streetAddress":"49 Fulton Street","city":"New York","state":"NY","latLong":{"lat":"40.708","long":"-74.0042"},"days":"Mondays","startTime":"6:30 AM","endTime":"7:30 AM","apikey":"6a17e07541d4470480aaac6d14713970","format":"json","version":"4.01"},{"title":"FRIDAY DOWNTOWN - Friday Downtown","venues":"St. Andrew's Church","streetAddress":"20 Cardinal Hayes Place","city":"New York","state":"NY","latLong":{"lat":"40.7132597018695","long":"-74.0023994478748"},"days":"Fridays","startTime":"6:00 PM","endTime":"7:00 PM","apikey":"6a17e07541d4470480aaac6d14713970","format":"json","version":"4.01"},{"title":"GATEWAY - Gateway","venues":"St. Peter's Church","streetAddress":"22 Barclay Street","city":"New York","state":"NY","latLong":{"lat":"40.7125","long":"-74.0095"},"days":"Sundays","startTime":"6:00 PM","endTime":"7:00 PM","apikey":"6a17e07541d4470480aaac6d14713970","format":"json","version":"4.01"},{"title":"PASSING THE BAR - Passing The Bar","venues":"St. Andrew's Church","streetAddress":"20 Cardinal Hayes Place","city":"New York","state":"NY","latLong":{"lat":"40.7133","long":"-74.0024"},"days":"Mondays","startTime":"1:15 PM","endTime":"2:15 PM","apikey":"6a17e07541d4470480aaac6d14713970","format":"json","version":"4.01"},{"title":"S.O.B.E.R. -","venues":"Saint Peter's Church","streetAddress":"22 Barclay Street","city":"New York","state":"NY","latLong":{"lat":"40.7125098758043","long":"-74.0094653605709"},"days":"Thursdays","startTime":"7:30 PM","endTime":"8:45 PM","apikey":"6a17e07541d4470480aaac6d14713970","format":"json","version":"4.01"},{"title":"SANE AND SOBER -","venues":"Hazelden Tribeca","streetAddress":"283 West Broadway","city":"New York","state":"NY","latLong":{"lat":"40.7208","long":"-74.0049"},"days":"Wednesdays","startTime":"7:00 PM","endTime":"8:00 PM","apikey":"6a17e07541d4470480aaac6d14713970","format":"json","version":"4.01"},{"title":"SATURDAY AFTERNOON DISCUSSION - Saturday Afternoon Discussion","venues":"Municipal Union Bldg DC 37","streetAddress":"125 Barclay Street","city":"New York","state":"NY","latLong":{"lat":"40.7143","long":"-74.013"},"days":"Saturdays","startTime":"2:00 PM","endTime":"3:15 PM","apikey":"6a17e07541d4470480aaac6d14713970","format":"json","version":"4.01"},{"title":"SEAMEN'S GROUP -","venues":"St. Margaret's House","streetAddress":"49 Fulton Street","city":"New York","state":"NY","latLong":{"lat":"40.7080475730195","long":"-74.0042375398091"},"days":"Tuesdays","startTime":"6:00 PM","endTime":"7:00 PM","apikey":"6a17e07541d4470480aaac6d14713970","format":"json","version":"4.01"},{"title":"SEAPORT - Seaport","venues":"St. Margaret's House","streetAddress":"49 Fulton Street","city":"New York","state":"NY","latLong":{"lat":"40.708","long":"-74.0042"},"days":"Thursdays","startTime":"12:15 PM","endTime":"1:15 PM","apikey":"6a17e07541d4470480aaac6d14713970","format":"json","version":"4.01"},{"title":"TOWER -","venues":"Church of Saint Andrew","streetAddress":"20 Cardinal Hayes Place","city":"New York","state":"NY","latLong":{"lat":"40.7133","long":"-74.0024"},"days":"Wednesdays","startTime":"5:30 PM","endTime":"6:30 PM","apikey":"6a17e07541d4470480aaac6d14713970","format":"json","version":"4.01"},{"title":"TRIANGLE GROUP -","venues":"Tribeca 12 Building","streetAddress":"283 West Broadway","city":"New York","state":"NY","latLong":{"lat":"40.7208","long":"-74.0049"},"days":"Sundays","startTime":"11:00 AM","endTime":"12:00 PM","apikey":"6a17e07541d4470480aaac6d14713970","format":"json","version":"4.01"},{"title":"TRIBECA GROUP @ ST. MARGARET'S HOUSE -","venues":"","streetAddress":"49 Fulton Street","city":"New York","state":"NY","latLong":{"lat":"40.708","long":"-74.0042"},"days":"Fridays","startTime":"7:30 PM","endTime":"8:30 PM","apikey":"6a17e07541d4470480aaac6d14713970","format":"json","version":"4.01"},{"title":"TRIBECA GROUP @ ST. PETER'S CHURCH - Tribeca","venues":"St. Peter's Church","streetAddress":"22 Barclay Street","city":"New York","state":"NY","latLong":{"lat":"40.7125","long":"-74.0095"},"days":"Mondays","startTime":"7:45 PM","endTime":"8:45 PM","apikey":"6a17e07541d4470480aaac6d14713970","format":"json","version":"4.01"},{"title":"WOMEN'S DOWNTOWN AA STEP MEETING -","venues":"St. Andrew's Church","streetAddress":"20 Cardinal Hayes Place","city":"New York","state":"NY","latLong":{"lat":"40.7132597018695","long":"-74.0023994478748"},"days":"Wednesdays","startTime":"1:15 PM","endTime":"2:15 PM","apikey":"6a17e07541d4470480aaac6d14713970","format":"json","version":"4.01"},{"title":"YOUNG PEOPLE'S DIVERSITY -","venues":"Hazelden Center","streetAddress":"283 West Broadway","city":"New York","state":"NY","latLong":{"lat":"40.7208","long":"-74.0049"},"days":"Wednesdays","startTime":"8:30 PM","endTime":"9:30 PM","apikey":"6a17e07541d4470480aaac6d14713970","format":"json","version":"4.01"},{"title":"YOUNG PEOPLE'S STEP -","venues":"Hazelden Center","streetAddress":"283 West Broadway","city":"New York","state":"NY","latLong":{"lat":"40.7208","long":"-74.0049"},"days":"Tuesdays","startTime":"7:45 PM","endTime":"8:45 PM","apikey":"6a17e07541d4470480aaac6d14713970","format":"json","version":"4.01"},{"title":"YOUTH ENJOYING SOBRIETY (Y.E.S.) - Youth Enjoying Sobriety (Yes)","venues":"Hazelden Center","streetAddress":"283 W. Broadway","city":"New York","state":"NY","latLong":{"lat":"40.7208247814361","long":"-74.0048537254953"},"days":"Saturdays","startTime":"7:00 PM","endTime":"8:15 PM","apikey":"6a17e07541d4470480aaac6d14713970","format":"json","version":"4.01"}]