[{"title":"A.A. ON THE BOWERY - AA On The Bowery","venues":"University Settlement","streetAddress":"273 BOWERY New York NY ","city":"New York","state":"NY","lat":"40.7236818990557","long":"-73.9924846000013","days":"Fridays","startTime":"6:00 PM","endTime":"7:00 PM","apikey":"6a17e07541d4470480aaac6d14713970","format":"json","version":"4.01"},{"title":"AFTER FIVE - After Five","venues":"Manhattan Seventh-Day Adventist Church","streetAddress":"232 W 11TH ST New York NY ","city":"New York","state":"NY","lat":"40.7362371953365","long":"-74.0025217528845","days":"Thursdays","startTime":"6:15 PM","endTime":"7:15 PM","apikey":"6a17e07541d4470480aaac6d14713970","format":"json","version":"4.01"},{"title":"AFTERNOON DELIGHT -","venues":"Hazelden Center","streetAddress":"283 W BROADWAY New York NY ","city":"New York","state":"NY","lat":"40.7208","long":"-74.0049","days":"Saturdays","startTime":"12:00 PM","endTime":"1:00 PM","apikey":"6a17e07541d4470480aaac6d14713970","format":"json","version":"4.01"},{"title":"ARTISTS IN RECOVERY (A.R.T.) -","venues":"Seventh Day Adventist Church","streetAddress":"232 W 11TH ST New York NY ","city":"New York","state":"NY","lat":"40.7362371953365","long":"-74.0025217528845","days":"Sundays","startTime":"6:30 PM","endTime":"7:45 PM","apikey":"6a17e07541d4470480aaac6d14713970","format":"json","version":"4.01"},{"title":"BAGELS AND BIG BOOK -","venues":"","streetAddress":"220 W HOUSTON ST New York NY ","city":"New York","state":"NY","lat":"40.7286467882859","long":"-74.0045885668674","days":"Sundays","startTime":"10:30 AM","endTime":"12:00 PM","apikey":"6a17e07541d4470480aaac6d14713970","format":"json","version":"4.01"},{"title":"CENTER MEETING -","venues":"Golden Bridge Yoga Center","streetAddress":"253 CENTER ST New York NY ","city":"New York","state":"NY","lat":"40.7206405452782","long":"-73.997977030548","days":"Mondays","startTime":"5:15 PM","endTime":"6:15 PM","apikey":"6a17e07541d4470480aaac6d14713970","format":"json","version":"4.01"},{"title":"EAST VILLAGE SOBER AGNOSTICS - Sober Agnostics","venues":"University Settlement","streetAddress":"273 BOWERY New York NY ","city":"New York","state":"NY","lat":"40.7236818990557","long":"-73.9924846000013","days":"Fridays","startTime":"6:45 PM","endTime":"8:00 PM","apikey":"6a17e07541d4470480aaac6d14713970","format":"json","version":"4.01"},{"title":"GREENWICH VILLAGE - Greenwich Village","venues":"St. Luke's Episcopal School","streetAddress":"487 HUDSON ST New York NY ","city":"New York","state":"NY","lat":"40.7326","long":"-74.0067","days":"Mondays","startTime":"7:15 PM","endTime":"8:15 PM","apikey":"6a17e07541d4470480aaac6d14713970","format":"json","version":"4.01"},{"title":"GRUPO CENTRAL - Grupo Central","venues":"St. Augustine's Church","streetAddress":"292 HENRY ST New York NY ","city":"New York","state":"NY","lat":"40.7137","long":"-73.983","days":"Sundays","startTime":"3:00 PM","endTime":"4:00 PM","apikey":"6a17e07541d4470480aaac6d14713970","format":"json","version":"4.01"},{"title":"HAPPY, JOYOUS AND FREE -","venues":"Manhattan Church of The Seventh-day Adventist","streetAddress":"232 W 11TH ST New York NY ","city":"New York","state":"NY","lat":"40.7362371953365","long":"-74.0025217528845","days":"s","startTime":"12:00 AM","endTime":"8:00 PM","apikey":"6a17e07541d4470480aaac6d14713970","format":"json","version":"4.01"},{"title":"LOWER EAST SIDE -","venues":"Church of Saint Theresa Rectory","streetAddress":"141 HENRY ST New York NY ","city":"New York","state":"NY","lat":"40.7134569908585","long":"-73.9906639451776","days":"Tuesdays","startTime":"7:00 PM","endTime":"8:00 PM","apikey":"6a17e07541d4470480aaac6d14713970","format":"json","version":"4.01"},{"title":"MIDNITE -","venues":"","streetAddress":"220 W HOUSTON ST New York NY ","city":"New York","state":"NY","lat":"40.7286","long":"-74.0046","days":"Mondays","startTime":"12:00 AM","endTime":"1:15 AM","apikey":"6a17e07541d4470480aaac6d14713970","format":"json","version":"4.01"},{"title":"NEW GROUP - New Group","venues":"St. John's Lutheran Church","streetAddress":"83 CHRISTOPHER ST New York NY ","city":"New York","state":"NY","lat":"40.7336","long":"-74.0037","days":"Sundays","startTime":"12:30 PM","endTime":"1:30 PM","apikey":"6a17e07541d4470480aaac6d14713970","format":"json","version":"4.01"},{"title":"PERRY STREET WORKSHOP - Perry Street Workshop     (:I)","venues":"","streetAddress":"50 PERRY ST New York NY ","city":"New York","state":"NY","lat":"40.7355","long":"-74.0032","days":"Wednesdays","startTime":"7:30 AM","endTime":"8:30 AM","apikey":"6a17e07541d4470480aaac6d14713970","format":"json","version":"4.01"},{"title":"PRIMETIME NYC (I) -","venues":"Seventh Day Adventist Church","streetAddress":"232 W 11TH ST New York NY ","city":"New York","state":"NY","lat":"40.7362371953365","long":"-74.0025217528845","days":"Thursdays","startTime":"6:30 PM","endTime":"7:45 PM","apikey":"6a17e07541d4470480aaac6d14713970","format":"json","version":"4.01"},{"title":"RED DOOR - Red Door","venues":"St. John's Episcopal Church","streetAddress":"224 WAVERLY PL New York NY ","city":"New York","state":"NY","lat":"40.7360739124495","long":"-74.0019465995063","days":"Sundays","startTime":"7:00 PM","endTime":"8:00 PM","apikey":"6a17e07541d4470480aaac6d14713970","format":"json","version":"4.01"},{"title":"ROOM FOR IMPROVEMENT     (:I) - Room For Improvement","venues":"St. Anthony's of Padua","streetAddress":"154 SULLIVAN ST New York NY ","city":"New York","state":"NY","lat":"40.6793331473202","long":"-74.0142665264419","days":"Mondays","startTime":"7:30 AM","endTime":"8:30 AM","apikey":"6a17e07541d4470480aaac6d14713970","format":"json","version":"4.01"},{"title":"ROOM FOR IMPROVEMENT     (:II) -","venues":"Chinatown YMCA","streetAddress":"273 BOWERY ST New York NY ","city":"New York","state":"NY","lat":"40.7236818990557","long":"-73.9924846000013","days":"Sundays","startTime":"7:30 AM","endTime":"","apikey":"6a17e07541d4470480aaac6d14713970","format":"json","version":"4.01"},{"title":"SHERIDAN SQUARE FOLLIES - Sheridan Square Follies","venues":"St. Joseph's Church","streetAddress":"371 6TH AVE New York NY ","city":"New York","state":"NY","lat":"40.6702479972343","long":"-73.9819764881203","days":"Saturdays","startTime":"6:00 PM","endTime":"7:00 PM","apikey":"6a17e07541d4470480aaac6d14713970","format":"json","version":"4.01"},{"title":"SOHO    (:I) -","venues":"St. Anthony of Padua Church","streetAddress":"155 SULLIVAN ST New York NY ","city":"New York","state":"NY","lat":"40.6793","long":"-74.0145","days":"Fridays","startTime":"6:30 PM","endTime":"7:30 PM","apikey":"6a17e07541d4470480aaac6d14713970","format":"json","version":"4.01"},{"title":"SPIRITUAL WORKSHOP - Spiritual Workshop","venues":"The Bronfman Cernter @ NYU","streetAddress":"7 E 10TH STRERT New York NY ","city":"New York","state":"NY","lat":"40.7333014567065","long":"-73.9949355719509","days":"Sundays","startTime":"11:00 AM","endTime":"12:15 PM","apikey":"6a17e07541d4470480aaac6d14713970","format":"json","version":"4.01"},{"title":"T&A-TOGETHERNESS & ACTION -","venues":"Seventh Adventist Church","streetAddress":"232 W 11TH ST New York NY ","city":"New York","state":"NY","lat":"40.7362371953365","long":"-74.0025217528845","days":"Mondays","startTime":"6:30 PM","endTime":"","apikey":"6a17e07541d4470480aaac6d14713970","format":"json","version":"4.01"},{"title":"TEN PLUS -","venues":"St. John's Lutheran Church","streetAddress":"81 CHRISTOPHER ST New York NY ","city":"New York","state":"NY","lat":"40.7336","long":"-74.0036","days":"Tuesdays","startTime":"8:00 PM","endTime":"9:00 PM","apikey":"6a17e07541d4470480aaac6d14713970","format":"json","version":"4.01"},{"title":"THE CAPTAIN'S TABLE -","venues":"University Settlement","streetAddress":"273 BOWERY New York NY ","city":"New York","state":"NY","lat":"40.7236818990557","long":"-73.9924846000013","days":"Thursdays","startTime":"7:00 PM","endTime":"8:00 PM","apikey":"6a17e07541d4470480aaac6d14713970","format":"json","version":"4.01"},{"title":"TOGETHER WE CAN -","venues":"Manhattan Seventh-Day Adventist Church","streetAddress":"232 W 11TH ST New York NY ","city":"New York","state":"NY","lat":"40.7362371953365","long":"-74.0025217528845","days":"Tuesdays","startTime":"6:45 PM","endTime":"8:00 PM","apikey":"6a17e07541d4470480aaac6d14713970","format":"json","version":"4.01"},{"title":"WEDNESDAY FOCUS - Wednesday Focus","venues":"Manhattan Church of The Seventh-day Adventist","streetAddress":"232 W 11TH ST New York NY ","city":"New York","state":"NY","lat":"40.7362371953365","long":"-74.0025217528845","days":"Wednesdays","startTime":"6:15 PM","endTime":"7:15 PM","apikey":"6a17e07541d4470480aaac6d14713970","format":"json","version":"4.01"},{"title":"WEST VILLAGE WOMEN -","venues":"St. John's Lutheran Church","streetAddress":"83 CHRISTOPHER ST New York NY ","city":"New York","state":"NY","lat":"40.7336","long":"-74.0037","days":"Thursdays","startTime":"6:30 PM","endTime":"7:45 PM","apikey":"6a17e07541d4470480aaac6d14713970","format":"json","version":"4.01"},{"title":"WOMEN INTO ACTION - Women Straight Ahead Saturday","venues":"","streetAddress":"220 W HOUSTON ST New York NY ","city":"New York","state":"NY","lat":"40.7286","long":"-74.0046","days":"Saturdays","startTime":"4:45 PM","endTime":"5:45 PM","apikey":"6a17e07541d4470480aaac6d14713970","format":"json","version":"4.01"},{"title":"WOMEN TOGETHER      (:II) - Women Together    (:II)","venues":"University Settlement @ Houston Street Center","streetAddress":"273 BOWERY New York NY ","city":"New York","state":"NY","lat":"40.7236818990557","long":"-73.9924846000013","days":"Fridays","startTime":"6:15 PM","endTime":"7:30 PM","apikey":"6a17e07541d4470480aaac6d14713970","format":"json","version":"4.01"}]