[{"title":"4 THE GRACE -","venues":"46th Street Club House","types":"BB","streetAddress":"252 W 46TH ST New York NY ","city":"New York","state":"NY","lat":"40.7591895426735","long":"-73.9867385774772","days":"Sundays","startTime":"4:00 PM","endTime":"5:00 PM","apikey":"6a17e07541d4470480aaac6d14713970","format":"json","version":"4.01"},{"title":"42nd AT 9:00pm -","venues":"","types":"BB","streetAddress":"303 W 42ND ST New York NY ","city":"New York","state":"NY","lat":"40.7573472021927","long":"-73.9898278386809","days":"Mondays","startTime":"9:15 PM","endTime":"10:15 PM","apikey":"6a17e07541d4470480aaac6d14713970","format":"json","version":"4.01"},{"title":"A NEW FREEDOM -","venues":"","types":"OD","streetAddress":"303 W 42ND ST New York NY ","city":"New York","state":"NY","lat":"40.7573472021927","long":"-73.9898278386809","days":"Wednesdays","startTime":"8:00 AM","endTime":"9:00 AM","apikey":"6a17e07541d4470480aaac6d14713970","format":"json","version":"4.01"},{"title":"ABINGDON SQUARE IN CHELSEA - Abingdon Square In Chelsea","venues":"S.A.G.E.","types":"OD","streetAddress":"305 7TH AVE New York NY ","city":"New York","state":"NY","lat":"40.7490752995785","long":"-73.9919132084332","days":"Wednesdays","startTime":"8:00 PM","endTime":"9:00 PM","apikey":"6a17e07541d4470480aaac6d14713970","format":"json","version":"4.01"},{"title":"ADVENTURES IN SOBRIETY -","venues":"Saint Thomas Church","types":"O","streetAddress":"1 W 53RD ST New York NY ","city":"New York","state":"NY","lat":"40.7605078757684","long":"-73.9758124645304","days":"Fridays","startTime":"7:00 PM","endTime":"8:00 PM","apikey":"6a17e07541d4470480aaac6d14713970","format":"json","version":"4.01"},{"title":"ALANON HOUSE   (AA Meetings Only) -","venues":"","types":"C","streetAddress":"303 W 42ND ST New York NY ","city":"New York","state":"NY","lat":"40.7573472021927","long":"-73.9898278386809","days":"Mondays","startTime":"12:00 PM","endTime":"1:00 PM","apikey":"6a17e07541d4470480aaac6d14713970","format":"json","version":"4.01"},{"title":"AMAZING GRACE - Amazing Grace","venues":"St. Mary the Virgin Church","types":"C","streetAddress":"133 W 46TH ST New York NY ","city":"New York","state":"NY","lat":"40.7578644754971","long":"-73.9831494978391","days":"Mondays","startTime":"7:30 AM","endTime":"8:30 AM","apikey":"6a17e07541d4470480aaac6d14713970","format":"json","version":"4.01"},{"title":"ANNEX                               (:I) - Annex    (:I)","venues":"Hudson Guild","types":"OD","streetAddress":"441 W 26TH ST New York NY ","city":"New York","state":"NY","lat":"40.7491018941578","long":"-74.001388696334","days":"Saturdays","startTime":"3:00 PM","endTime":"4:00 PM","apikey":"6a17e07541d4470480aaac6d14713970","format":"json","version":"4.01"},{"title":"ANNEX    (:II) - Annex    (:II)","venues":"GMHC","types":"O","streetAddress":"446 W 33RD ST New York NY ","city":"New York","state":"NY","lat":"40.7534748563734","long":"-73.9988113218168","days":"Tuesdays","startTime":"8:00 PM","endTime":"9:00 PM","apikey":"6a17e07541d4470480aaac6d14713970","format":"json","version":"4.01"},{"title":"ARTISTS IN RECOVERY -","venues":"46th Street Clubhouse","types":"C","streetAddress":"252 W 46TH ST New York NY ","city":"New York","state":"NY","lat":"40.7591895426735","long":"-73.9867385774772","days":"Tuesdays","startTime":"9:15 PM","endTime":"10:15 PM","apikey":"6a17e07541d4470480aaac6d14713970","format":"json","version":"4.01"},{"title":"BEGINNERS -","venues":"46th Street Club House","types":"B","streetAddress":"252 W 46TH ST New York NY ","city":"New York","state":"NY","lat":"40.7591895426735","long":"-73.9867385774772","days":"Mondays","startTime":"1:30 PM","endTime":"2:30 PM","apikey":"6a17e07541d4470480aaac6d14713970","format":"json","version":"4.01"},{"title":"BEGINNERS -","venues":"46th Street Club House","types":"B","streetAddress":"252 W 46TH ST New York NY ","city":"New York","state":"NY","lat":"40.7591895426735","long":"-73.9867385774772","days":"Sundays","startTime":"2:45 PM","endTime":"3:45 PM","apikey":"6a17e07541d4470480aaac6d14713970","format":"json","version":"4.01"},{"title":"BETWEEN SHOWS - Between Shows","venues":"The Actor's Temple","types":"C","streetAddress":"339 W 47TH ST New York NY ","city":"New York","state":"NY","lat":"40.7609549990382","long":"-73.9885447699323","days":"Wednesdays","startTime":"5:00 PM","endTime":"6:00 PM","apikey":"6a17e07541d4470480aaac6d14713970","format":"json","version":"4.01"},{"title":"BLUEPRINT FOR LIVING -","venues":"","types":"BB","streetAddress":"303 W 42ND ST New York NY ","city":"New York","state":"NY","lat":"40.7573472021927","long":"-73.9898278386809","days":"Fridays","startTime":"4:30 PM","endTime":"4:30 PM","apikey":"6a17e07541d4470480aaac6d14713970","format":"json","version":"4.01"},{"title":"BOOKSHOP AT NOON - Bookshop At Noon","venues":"St. Francis of Assisi Education Center","types":"C","streetAddress":"139 W 31ST ST New York NY ","city":"New York","state":"NY","lat":"40.7484468866129","long":"-73.9902352468194","days":"Mondays","startTime":"12:00 PM","endTime":"1:00 PM","apikey":"6a17e07541d4470480aaac6d14713970","format":"json","version":"4.01"},{"title":"CLEAN AND DRY - Clean And Dry","venues":"Trinity Presbyterian Church","types":"B","streetAddress":"422 W 57TH ST New York NY ","city":"New York","state":"NY","lat":"40.7681070513278","long":"-73.9863970797226","days":"Sundays","startTime":"5:00 PM","endTime":"5:45 PM","apikey":"6a17e07541d4470480aaac6d14713970","format":"json","version":"4.01"},{"title":"COMMUTERS SPECIAL - Commuters Special","venues":"St. John's Hall","types":"C","streetAddress":"211 W 30TH ST New York NY ","city":"New York","state":"NY","lat":"40.7486793956479","long":"-73.9927286472649","days":"Wednesdays","startTime":"6:00 PM","endTime":"7:00 PM","apikey":"6a17e07541d4470480aaac6d14713970","format":"json","version":"4.01"},{"title":"D.I.V.A.  (Divinely Inspired Vivacious Alcoholics) -","venues":"46th Street Club House","types":"C","streetAddress":"252 W 46TH ST New York NY ","city":"New York","state":"NY","lat":"40.7591895426735","long":"-73.9867385774772","days":"Saturdays","startTime":"12:00 PM","endTime":"1:00 PM","apikey":"6a17e07541d4470480aaac6d14713970","format":"json","version":"4.01"},{"title":"FIFTH AVENUE STEP -","venues":"St. Thomas Church","types":"S","streetAddress":"1 W 53RD ST New York NY ","city":"New York","state":"NY","lat":"40.7605078757684","long":"-73.9758124645304","days":"Saturdays","startTime":"10:00 AM","endTime":"11:00 AM","apikey":"6a17e07541d4470480aaac6d14713970","format":"json","version":"4.01"},{"title":"FIRESIDE  (:I)  WEEKDAY MEETINGS ONLY - Fireside","venues":"Trinity Presbyterian Church","types":"B","streetAddress":"422 W 57TH ST New York NY ","city":"New York","state":"NY","lat":"40.7681070513278","long":"-73.9863970797226","days":"Wednesdays","startTime":"12:00 PM","endTime":"1:00 PM","apikey":"6a17e07541d4470480aaac6d14713970","format":"json","version":"4.01"},{"title":"FOGLIFTERS-FIFTH AVENUE - Foglifters-Fifth Avenue","venues":"Fifth Av Presbyterian Church","types":"B","streetAddress":"7 W 55TH ST New York NY ","city":"New York","state":"NY","lat":"40.7618390938974","long":"-73.975091742462","days":"s","startTime":"12:00 AM","endTime":"1:30 PM","apikey":"6a17e07541d4470480aaac6d14713970","format":"json","version":"4.01"},{"title":"FORTY-FIVE SOLUTIONS - Forty-Five Solutions","venues":"46th Street Club House","types":"C","streetAddress":"252 W 46TH ST New York NY ","city":"New York","state":"NY","lat":"40.7591895426735","long":"-73.9867385774772","days":"Saturdays","startTime":"10:30 PM","endTime":"11:30 PM","apikey":"6a17e07541d4470480aaac6d14713970","format":"json","version":"4.01"},{"title":"GREEN ROOM - Green Room","venues":"The Actors Fund of America","types":"C","streetAddress":"729 7TH AVE New York NY ","city":"New York","state":"NY","lat":"40.760037679013","long":"-73.9839212337742","days":"Thursdays","startTime":"5:30 PM","endTime":"6:30 PM","apikey":"6a17e07541d4470480aaac6d14713970","format":"json","version":"4.01"},{"title":"GRUPO BUENA VOLUNTAD - Grupo Buena Voluntad","venues":"Apartment Building","types":"Sp","streetAddress":"538 W 47TH ST New York NY ","city":"New York","state":"NY","lat":"40.763245485234","long":"-73.9944361996955","days":"Mondays","startTime":"8:00 PM","endTime":"9:00 PM","apikey":"6a17e07541d4470480aaac6d14713970","format":"json","version":"4.01"},{"title":"HELL'S KITCHEN - Hell's Kitchen","venues":"Mount Sinai - Roosevelt Hospital","types":"OD","streetAddress":"1000 TENTH AVE New York NY ","city":"New York","state":"NY","lat":"40.7700536177104","long":"-73.9877635987168","days":"Mondays","startTime":"7:30 PM","endTime":"8:30 PM","apikey":"6a17e07541d4470480aaac6d14713970","format":"json","version":"4.01"},{"title":"HENRY HUDSON - Henry Hudson","venues":"","types":"BB","streetAddress":"303 W 42ND ST New York NY ","city":"New York","state":"NY","lat":"40.7573472021927","long":"-73.9898278386809","days":"Tuesdays","startTime":"7:30 PM","endTime":"8:30 PM","apikey":"6a17e07541d4470480aaac6d14713970","format":"json","version":"4.01"},{"title":"JOE AND CHARLIE CD MEETING -","venues":"46th Street Club House","types":"B","streetAddress":"252 W 46TH ST New York NY ","city":"New York","state":"NY","lat":"40.7591895426735","long":"-73.9867385774772","days":"Mondays","startTime":"9:15 PM","endTime":"10:15 PM","apikey":"6a17e07541d4470480aaac6d14713970","format":"json","version":"4.01"},{"title":"LEARNING TO LIVE (:I) - Learning To Live","venues":"Upright Citizens Brigade Theatre","types":"S","streetAddress":"307 W 26TH ST New York NY ","city":"New York","state":"NY","lat":"40.7473708388913","long":"-73.9972612945271","days":"Wednesdays","startTime":"12:00 PM","endTime":"1:00 PM","apikey":"6a17e07541d4470480aaac6d14713970","format":"json","version":"4.01"},{"title":"LUCKY ONES -","venues":"St. Paul's Episcopal Parish House","types":"BB","streetAddress":"405 W 59TH ST New York NY ","city":"New York","state":"NY","lat":"40.7697787078634","long":"-73.9858686267659","days":"Wednesdays","startTime":"1:00 PM","endTime":"2:00 PM","apikey":"6a17e07541d4470480aaac6d14713970","format":"json","version":"4.01"},{"title":"MIDNIGHT IN MIDTOWN -","venues":"","types":"S","streetAddress":"303 W 42ND ST New York NY ","city":"New York","state":"NY","lat":"40.7573472021927","long":"-73.9898278386809","days":"Sundays","startTime":"12:00 AM","endTime":"1:00 AM","apikey":"6a17e07541d4470480aaac6d14713970","format":"json","version":"4.01"},{"title":"MIRACLE - Miracle","venues":"Trinity Presbyterian Church","types":"B","streetAddress":"422 W 57TH ST New York NY ","city":"New York","state":"NY","lat":"40.7681070513278","long":"-73.9863970797226","days":"Mondays","startTime":"7:00 PM","endTime":"8:00 PM","apikey":"6a17e07541d4470480aaac6d14713970","format":"json","version":"4.01"},{"title":"MORNING CALL -","venues":"St. Mary the Virgin Church","types":"B","streetAddress":"133 W 46TH ST New York NY ","city":"New York","state":"NY","lat":"40.7578644754971","long":"-73.9831494978391","days":"Thursdays","startTime":"6:00 AM","endTime":"7:00 AM","apikey":"6a17e07541d4470480aaac6d14713970","format":"json","version":"4.01"},{"title":"NEW BUT WEST - New But West","venues":"St. Mary the Virgin Church","types":"C","streetAddress":"133 W 46TH ST New York NY ","city":"New York","state":"NY","lat":"40.7578644754971","long":"-73.9831494978391","days":"Saturdays","startTime":"10:00 AM","endTime":"11:00 AM","apikey":"6a17e07541d4470480aaac6d14713970","format":"json","version":"4.01"},{"title":"NEW PHOENIX -","venues":"","types":"C","streetAddress":"303 W 42ND ST New York NY ","city":"New York","state":"NY","lat":"40.7573472021927","long":"-73.9898278386809","days":"Sundays","startTime":"10:30 AM","endTime":"11:30 AM","apikey":"6a17e07541d4470480aaac6d14713970","format":"json","version":"4.01"},{"title":"NINTH AVENUE           (:I) - Ninth Avenue     (:I)","venues":"Holy Apostles Church Rectory","types":"C","streetAddress":"296 9TH AVE New York NY ","city":"New York","state":"NY","lat":"40.8228042471098","long":"-73.8091987304391","days":"Wednesdays","startTime":"6:15 PM","endTime":"7:15 PM","apikey":"6a17e07541d4470480aaac6d14713970","format":"json","version":"4.01"},{"title":"NU GARDEN - Nu Garden","venues":"St. Francis of Assisi Center","types":"S","streetAddress":"139 W 31ST ST New York NY ","city":"New York","state":"NY","lat":"40.7484468866129","long":"-73.9902352468194","days":"Sundays","startTime":"6:00 PM","endTime":"7:30 PM","apikey":"6a17e07541d4470480aaac6d14713970","format":"json","version":"4.01"},{"title":"PARK BENCH   (:I) -","venues":"St. Thomas Church","types":"OD","streetAddress":"1 W 53RD ST New York NY ","city":"New York","state":"NY","lat":"40.7605078757684","long":"-73.9758124645304","days":"Tuesdays","startTime":"12:30 PM","endTime":"1:30 PM","apikey":"6a17e07541d4470480aaac6d14713970","format":"json","version":"4.01"},{"title":"POWERLESS - Powerless","venues":"Manhattan Plaza Health Club","types":"C","streetAddress":"484 W 43RD ST New York NY ","city":"New York","state":"NY","lat":"40.7600416876915","long":"-73.9946015443691","days":"Saturdays","startTime":"7:00 PM","endTime":"8:00 PM","apikey":"6a17e07541d4470480aaac6d14713970","format":"json","version":"4.01"},{"title":"PROMISES - Promises","venues":"Fifth Av Presbyterian Church","types":"OD","streetAddress":"7 W 55TH ST New York NY ","city":"New York","state":"NY","lat":"40.7618390938974","long":"-73.975091742462","days":"Fridays","startTime":"12:30 PM","endTime":"1:30 PM","apikey":"6a17e07541d4470480aaac6d14713970","format":"json","version":"4.01"},{"title":"PROMISES -","venues":"46th Street Club House","types":"S","streetAddress":"252 W 46TH ST New York NY ","city":"New York","state":"NY","lat":"40.7591895426735","long":"-73.9867385774772","days":"Thursdays","startTime":"9:15 PM","endTime":"10:15 PM","apikey":"6a17e07541d4470480aaac6d14713970","format":"json","version":"4.01"},{"title":"RAINBOW ROOM - Rainbow Room","venues":"46th Street Club House","types":"C","streetAddress":"252 W 46TH ST New York NY ","city":"New York","state":"NY","lat":"40.7591895426735","long":"-73.9867385774772","days":"Saturdays","startTime":"5:30 PM","endTime":"6:30 PM","apikey":"6a17e07541d4470480aaac6d14713970","format":"json","version":"4.01"},{"title":"RENAISSANCE - Renaissance","venues":"The Learning Center","types":"C","streetAddress":"4 W 43RD ST New York NY ","city":"New York","state":"NY","lat":"40.7541070968091","long":"-73.9805131973307","days":"Mondays","startTime":"12:30 AM","endTime":"1:30 PM","apikey":"6a17e07541d4470480aaac6d14713970","format":"json","version":"4.01"},{"title":"SATURDAY ROTATING 12 STEP -","venues":"46th Street Club House","types":"S","streetAddress":"252 W 46TH ST New York NY ","city":"New York","state":"NY","lat":"40.7591895426735","long":"-73.9867385774772","days":"Saturdays","startTime":"9:15 PM","endTime":"10:15 PM","apikey":"6a17e07541d4470480aaac6d14713970","format":"json","version":"4.01"},{"title":"SPIRITUAL FRIDAYS -","venues":"Church of The Holy Apostles","types":"OD","streetAddress":"296 NINTH AVE New York NY ","city":"New York","state":"NY","lat":"40.7493642017494","long":"-73.9991233310954","days":"Fridays","startTime":"6:30 PM","endTime":"7:30 PM","apikey":"6a17e07541d4470480aaac6d14713970","format":"json","version":"4.01"},{"title":"ST. THOMAS A.M. - St. Thomas A.M.","venues":"St. Thomas Church Parish House","types":"C","streetAddress":"1 W 53RD ST New York NY ","city":"New York","state":"NY","lat":"40.7605078757684","long":"-73.9758124645304","days":"Tuesdays","startTime":"7:45 AM","endTime":"8:45 AM","apikey":"6a17e07541d4470480aaac6d14713970","format":"json","version":"4.01"},{"title":"STATLER AT NOON - Statler At Noon","venues":"St. John the Baptist Church","types":"C","streetAddress":"210 W 31ST ST New York NY ","city":"New York","state":"NY","lat":"40.7491443998598","long":"-73.9923418714109","days":"Tuesdays","startTime":"12:00 PM","endTime":"1:00 PM","apikey":"6a17e07541d4470480aaac6d14713970","format":"json","version":"4.01"},{"title":"STEPS AND TRADITIONS ON WEDNESDAY - Eightieth Street","venues":"Trinity Presbyterian Church","types":"S","streetAddress":"422 W 57TH ST New York NY ","city":"New York","state":"NY","lat":"40.7681070513278","long":"-73.9863970797226","days":"Wednesdays","startTime":"7:00 PM","endTime":"8:15 PM","apikey":"6a17e07541d4470480aaac6d14713970","format":"json","version":"4.01"},{"title":"SUNDAY NIGHT BEGINNERS -","venues":"46th Street Club House","types":"B","streetAddress":"252 W 46TH ST New York NY ","city":"New York","state":"NY","lat":"40.7591895426735","long":"-73.9867385774772","days":"Sundays","startTime":"9:15 PM","endTime":"10:15 PM","apikey":"6a17e07541d4470480aaac6d14713970","format":"json","version":"4.01"},{"title":"TUESDAY SOBER AGNOSTICS -","venues":"","types":"OD","streetAddress":"134 W 29TH ST New York NY ","city":"New York","state":"NY","lat":"40.7469927833142","long":"-73.9910926609818","days":"Tuesdays","startTime":"6:00 PM","endTime":"7:00 PM","apikey":"6a17e07541d4470480aaac6d14713970","format":"json","version":"4.01"},{"title":"WEST 58th STREET STEP - West 58th Street Step","venues":"Mount Sinai - Roosevelt Hospital","types":"S","streetAddress":"1000 TENTH AVE New York NY ","city":"New York","state":"NY","lat":"40.7700536177104","long":"-73.9877635987168","days":"Fridays","startTime":"7:30 PM","endTime":"8:30 PM","apikey":"6a17e07541d4470480aaac6d14713970","format":"json","version":"4.01"},{"title":"WOMEN OVER FORTY - Women Over Forty","venues":"GMHC","types":"C","streetAddress":"446 W 33RD ST New York NY ","city":"New York","state":"NY","lat":"40.7534748563734","long":"-73.9988113218168","days":"Fridays","startTime":"6:30 PM","endTime":"7:45 PM","apikey":"6a17e07541d4470480aaac6d14713970","format":"json","version":"4.01"},{"title":"YOUNG IN 164 -","venues":"St. Clements Church","types":"BB","streetAddress":"423 W 46TH ST New York NY ","city":"New York","state":"NY","lat":"40.7614822876876","long":"-73.9917070561952","days":"Sundays","startTime":"7:30 PM","endTime":"8:30 PM","apikey":"6a17e07541d4470480aaac6d14713970","format":"json","version":"4.01"},{"title":"YOUNG PEOPLE'S MEETING -","venues":"46th Street Club House","types":"BB","streetAddress":"252 W 46TH ST New York NY ","city":"New York","state":"NY","lat":"40.7591895426735","long":"-73.9867385774772","days":"Fridays","startTime":"9:15 PM","endTime":"10:15 PM","apikey":"6a17e07541d4470480aaac6d14713970","format":"json","version":"4.01"}]