[{"title":"AA LITERATURE - AA Literature","venues":"","types":"C","streetAddress":"122 E 37TH ST New York NY ","city":"New York","state":"NY","lat":"40.7484070354431","long":"-73.9788161102815","days":"Sundays","startTime":"6:15 PM","endTime":"7:15 PM","apikey":"6a17e07541d4470480aaac6d14713970","format":"json","version":"4.01"},{"title":"BREAKFAST CLUB - Breakfast Club","venues":"","types":"S","streetAddress":"30 E 35TH ST New York NY ","city":"New York","state":"NY","lat":"40.6540049272587","long":"-73.9451774713895","days":"Tuesdays","startTime":"7:30 AM","endTime":"8:30 AM","apikey":"6a17e07541d4470480aaac6d14713970","format":"json","version":"4.01"},{"title":"CARLYLE - Carlyle","venues":"Cathedral High School","types":"B","streetAddress":"350 E 56TH ST New York NY ","city":"New York","state":"NY","lat":"40.7580414144455","long":"-73.9646083965085","days":"Mondays","startTime":"5:45 PM","endTime":"6:45 PM","apikey":"6a17e07541d4470480aaac6d14713970","format":"json","version":"4.01"},{"title":"CITY GROUP - Citikorp","venues":"St. Peter's Lutheran Church @ Citicorp Center","types":"OD","streetAddress":"619 LEXINGTON AVE New York NY ","city":"New York","state":"NY","lat":"40.6894456672046","long":"-73.9367719544511","days":"Thursdays","startTime":"7:30 AM","endTime":"8:30 AM","apikey":"6a17e07541d4470480aaac6d14713970","format":"json","version":"4.01"},{"title":"COURAGE TO CHANGE - Courage To Change","venues":"","types":"S","streetAddress":"122 E 37TH ST New York NY ","city":"New York","state":"NY","lat":"40.6540144942404","long":"-73.9432341596893","days":"Sundays","startTime":"12:45 PM","endTime":"1:45 PM","apikey":"6a17e07541d4470480aaac6d14713970","format":"json","version":"4.01"},{"title":"EMPIRE STATE - Empire State","venues":"J.H. Holmes Community House","types":"C","streetAddress":"28 E 35TH ST New York NY ","city":"New York","state":"NY","lat":"40.6540370303515","long":"-73.9451809146884","days":"Mondays","startTime":"12:15 PM","endTime":"1:15 PM","apikey":"6a17e07541d4470480aaac6d14713970","format":"json","version":"4.01"},{"title":"GOTHAM - Gotham","venues":"Cathedral High School","types":"B","streetAddress":"350 E 56TH ST New York NY ","city":"New York","state":"NY","lat":"40.7580414144455","long":"-73.9646083965085","days":"Sundays","startTime":"5:30 PM","endTime":"6:30 PM","apikey":"6a17e07541d4470480aaac6d14713970","format":"json","version":"4.01"},{"title":"GRAND CENTRAL - Grand Central","venues":"Soldiers, Sailors, Marines & Airmen's Club","types":"B","streetAddress":"283 LEXINGTON AVE New York NY ","city":"New York","state":"NY","lat":"40.7480051470584","long":"-73.9783823675783","days":"Mondays","startTime":"5:30 PM","endTime":"6:30 PM","apikey":"6a17e07541d4470480aaac6d14713970","format":"json","version":"4.01"},{"title":"GRUPO BRASIL -","venues":"","types":"S","streetAddress":"122 E 37TH ST New York NY ","city":"New York","state":"NY","lat":"40.7484070354431","long":"-73.9788161102815","days":"Wednesdays","startTime":"8:00 PM","endTime":"9:00 PM","apikey":"6a17e07541d4470480aaac6d14713970","format":"json","version":"4.01"},{"title":"LIFE LINE - Life Line","venues":"St. Peter's Lutheran Church @ CitiCorp Center","types":"B","streetAddress":"619 LEXINGTON AVE New York NY ","city":"New York","state":"NY","lat":"40.6894456672046","long":"-73.9367719544511","days":"Mondays","startTime":"5:30 PM","endTime":"6:30 PM","apikey":"6a17e07541d4470480aaac6d14713970","format":"json","version":"4.01"},{"title":"LUNCH BUNCH - Lunch Bunch","venues":"Saint Agnes Church","types":"B","streetAddress":"141 E 43RD ST New York NY ","city":"New York","state":"NY","lat":"40.7519228249496","long":"-73.9748688424442","days":"Mondays","startTime":"12:30 PM","endTime":"1:30 PM","apikey":"6a17e07541d4470480aaac6d14713970","format":"json","version":"4.01"},{"title":"LUNCHTIME EXPRESS AT THE MUSTARD SEED -","venues":"MUSTARD SEED","types":"O","streetAddress":"122 E 37TH ST New York NY ","city":"New York","state":"NY","lat":"40.6540144942404","long":"-73.9432341596893","days":"Wednesdays","startTime":"12:30 PM","endTime":"1:15 PM","apikey":"6a17e07541d4470480aaac6d14713970","format":"json","version":"4.01"},{"title":"MEDITATION SATURDAY NIGHT - Meditation Saturday Night","venues":"Mustard Seed","types":"","streetAddress":"122 E 37TH ST New York NY ","city":"New York","state":"NY","lat":"40.6540144942404","long":"-73.9432341596893","days":"Saturdays","startTime":"7:30 PM","endTime":"","apikey":"6a17e07541d4470480aaac6d14713970","format":"json","version":"4.01"},{"title":"MONDAY MEN - Monday Men","venues":"St. Agnes Church","types":"B","streetAddress":"141 E 43RD ST New York NY ","city":"New York","state":"NY","lat":"40.6523881959639","long":"-73.9371587997014","days":"Mondays","startTime":"6:15 PM","endTime":"7:15 PM","apikey":"6a17e07541d4470480aaac6d14713970","format":"json","version":"4.01"},{"title":"MURRAY HILL - Murray Hill","venues":"Church of the Incarnation","types":"B","streetAddress":"209 MADISON AVE New York NY ","city":"New York","state":"NY","lat":"40.7486","long":"-73.9821","days":"Mondays","startTime":"6:15 PM","endTime":"7:15 PM","apikey":"6a17e07541d4470480aaac6d14713970","format":"json","version":"4.01"},{"title":"MUSTARD SEED - Mustard Seed     (:I)","venues":"","types":"BB","streetAddress":"122 E 37TH ST New York NY ","city":"New York","state":"NY","lat":"40.6540144942404","long":"-73.9432341596893","days":"Tuesdays","startTime":"6:15 AM","endTime":"7:15 AM","apikey":"6a17e07541d4470480aaac6d14713970","format":"json","version":"4.01"},{"title":"REBELLION DOGS -","venues":"St. Peter's Lutheran Church @ CitiCorp Center","types":"C","streetAddress":"619 LEXINGTON AVE New York NY ","city":"New York","state":"NY","lat":"40.7588098853474","long":"-73.9704556871007","days":"Tuesdays","startTime":"7:30 AM","endTime":"8:30 AM","apikey":"6a17e07541d4470480aaac6d14713970","format":"json","version":"4.01"},{"title":"SATURDAY EAST - Saturday East","venues":"Church of the Good Shepherd","types":"C","streetAddress":"240 E 31ST ST New York NY ","city":"New York","state":"NY","lat":"40.6447359577704","long":"-73.9480330026725","days":"Saturdays","startTime":"4:00 PM","endTime":"5:00 PM","apikey":"6a17e07541d4470480aaac6d14713970","format":"json","version":"4.01"},{"title":"SATURDAY STEP - Saturday Step","venues":"The New York New Church","types":"S","streetAddress":"114 E 35TH ST New York NY ","city":"New York","state":"NY","lat":"40.6525273050912","long":"-73.9450186857815","days":"Saturdays","startTime":"10:00 AM","endTime":"11:00 AM","apikey":"6a17e07541d4470480aaac6d14713970","format":"json","version":"4.01"},{"title":"SERENITY EAST - Serenity East","venues":"ALL SAINTS CHURCH","types":"BB","streetAddress":"230 E 60TH ST New York NY ","city":"New York","state":"NY","lat":"40.7618052824589","long":"-73.9654716790864","days":"Tuesdays","startTime":"7:30 AM","endTime":"8:30 AM","apikey":"6a17e07541d4470480aaac6d14713970","format":"json","version":"4.01"},{"title":"SERENITY EAST (:I) -","venues":"Caron Foundation","types":"BB","streetAddress":"244 E 58TH ST New York NY ","city":"New York","state":"NY","lat":"40.7604192581185","long":"-73.9660691339251","days":"Tuesdays","startTime":"5:30 PM","endTime":"6:30 PM","apikey":"6a17e07541d4470480aaac6d14713970","format":"json","version":"4.01"},{"title":"SILKWORTH WOMEN'S - Silkworth Women's","venues":"St. Peter's Lutheran Church @ CitiCorp Center","types":"C","streetAddress":"619 LEXINGTON AVE New York NY ","city":"New York","state":"NY","lat":"40.7588098853474","long":"-73.9704556871007","days":"Thursdays","startTime":"12:30 PM","endTime":"1:30 PM","apikey":"6a17e07541d4470480aaac6d14713970","format":"json","version":"4.01"},{"title":"ST. BART'S TWELVE-THIRTIES - St. Bart's Twelve-Thirties","venues":"St. Bartholomew's Church","types":"BB","streetAddress":"325 PARK AVE New York NY ","city":"New York","state":"NY","lat":"40.7574634720886","long":"-73.9733951693811","days":"Fridays","startTime":"12:30 PM","endTime":"1:30 PM","apikey":"6a17e07541d4470480aaac6d14713970","format":"json","version":"4.01"},{"title":"STRAIGHT 12 -","venues":"CHURCH OF THE GOOD SHEPARD","types":"C","streetAddress":"236 E 31ST ST New York NY ","city":"New York","state":"NY","lat":"40.7433840338795","long":"-73.9786942806593","days":"Saturdays","startTime":"6:00 PM","endTime":"7:00 PM","apikey":"6a17e07541d4470480aaac6d14713970","format":"json","version":"4.01"},{"title":"TEMPLETON - Templeton","venues":"Conservative Synagogue","types":"OD","streetAddress":"308 E 55TH ST New York NY ","city":"New York","state":"NY","lat":"40.6502318973681","long":"-73.9254638554268","days":"Wednesdays","startTime":"6:15 PM","endTime":"7:15 PM","apikey":"6a17e07541d4470480aaac6d14713970","format":"json","version":"4.01"},{"title":"TRAFALGAR - Trafalgar","venues":"The Caron Foundation","types":"OD","streetAddress":"244 E 58TH ST New York NY ","city":"New York","state":"NY","lat":"40.6498884631618","long":"-73.9225346093351","days":"Tuesdays","startTime":"6:45 PM","endTime":"7:45 PM","apikey":"6a17e07541d4470480aaac6d14713970","format":"json","version":"4.01"},{"title":"TUDOR - Tudor","venues":"Caron Foundation","types":"OD","streetAddress":"244 E 58TH ST New York NY ","city":"New York","state":"NY","lat":"40.6498884631618","long":"-73.9225346093351","days":"Thursdays","startTime":"6:15 PM","endTime":"7:15 PM","apikey":"6a17e07541d4470480aaac6d14713970","format":"json","version":"4.01"},{"title":"WOMEN'S ELEVENTH STEP - Women's Eleventh Step","venues":"","types":"S","streetAddress":"109 E 50TH ST New York NY ","city":"New York","state":"NY","lat":"40.7570109520275","long":"-73.9733483642645","days":"Wednesdays","startTime":"5:45 PM","endTime":"7:15 PM","apikey":"6a17e07541d4470480aaac6d14713970","format":"json","version":"4.01"}]