[{"title":"A NEW DAY - A New Day","venues":"Holy Name Church","types":"C","streetAddress":"207 W 96TH ST New York NY ","city":"New York","state":"NY","lat":"40.794213540618","long":"-73.9705213185661","days":"Mondays","startTime":"3:00 PM","endTime":"4:00 PM","apikey":"6a17e07541d4470480aaac6d14713970","format":"json","version":"4.01"},{"title":"A VISION FOR YOU - A Vision For You","venues":"Christ & St. Stephen's Church","types":"OD","streetAddress":"120 W 69TH ST New York NY ","city":"New York","state":"NY","lat":"40.7755654476221","long":"-73.9806385532506","days":"Fridays","startTime":"7:45 PM","endTime":"8:45 PM","apikey":"6a17e07541d4470480aaac6d14713970","format":"json","version":"4.01"},{"title":"AFTER EIGHT (:i) - After Eight","venues":"Trinity Presbyterian Church","types":"C","streetAddress":"422 W 57TH ST New York NY ","city":"New York","state":"NY","lat":"40.7681070513278","long":"-73.9863970797226","days":"Tuesdays","startTime":"6:30 PM","endTime":"7:45 PM","apikey":"6a17e07541d4470480aaac6d14713970","format":"json","version":"4.01"},{"title":"AFTER EIGHT (:ii) -","venues":"Phoenix House","types":"C","streetAddress":"164 W 74TH ST New York NY ","city":"New York","state":"NY","lat":"40.7794255507423","long":"-73.9797175099267","days":"Thursdays","startTime":"6:30 PM","endTime":"7:30 PM","apikey":"6a17e07541d4470480aaac6d14713970","format":"json","version":"4.01"},{"title":"ALTERED ATTITUDES - Altered Attitudes","venues":"Holy Name Church","types":"OD","streetAddress":"207 W 96TH ST New York NY ","city":"New York","state":"NY","lat":"40.794213540618","long":"-73.9705213185661","days":"Fridays","startTime":"9:30 PM","endTime":"10:30 PM","apikey":"6a17e07541d4470480aaac6d14713970","format":"json","version":"4.01"},{"title":"AMSTERDAM - Amsterdam","venues":"St. Gregory's Church","types":"B","streetAddress":"144 W 90TH ST New York NY ","city":"New York","state":"NY","lat":"40.7897029664383","long":"-73.9720897206413","days":"Saturdays","startTime":"1:00 PM","endTime":"2:30 PM","apikey":"6a17e07541d4470480aaac6d14713970","format":"json","version":"4.01"},{"title":"ANSONIA - Ansonia","venues":"Hamilton House","types":"C","streetAddress":"141 W 73RD ST New York NY ","city":"New York","state":"NY","lat":"40.7786676707999","long":"-73.9794206828762","days":"Mondays","startTime":"7:00 PM","endTime":"8:00 PM","apikey":"6a17e07541d4470480aaac6d14713970","format":"json","version":"4.01"},{"title":"ATLANTIC WEST STEP & TRADITION - Atlantic West Step & Tradition","venues":"Fourth Universalist Church","types":"S","streetAddress":"4 W 76TH IN ST New York NY ","city":"New York","state":"NY","lat":"40.7787527067962","long":"-73.9741749847811","days":"Fridays","startTime":"7:00 PM","endTime":"8:00 PM","apikey":"6a17e07541d4470480aaac6d14713970","format":"json","version":"4.01"},{"title":"BLOOMINGDALE - Bloomingdale","venues":"Church of the Ascension","types":"S","streetAddress":"221 W 107TH ST New York NY ","city":"New York","state":"NY","lat":"40.8014194326656","long":"-73.965712913103","days":"Tuesdays","startTime":"6:15 PM","endTime":"7:15 PM","apikey":"6a17e07541d4470480aaac6d14713970","format":"json","version":"4.01"},{"title":"BROADWAY AT 96TH - Broadway At 96th","venues":"Holy Name Church","types":"BB","streetAddress":"207 W 96TH ST New York NY ","city":"New York","state":"NY","lat":"40.794213540618","long":"-73.9705213185661","days":"Mondays","startTime":"7:30 PM","endTime":"8:30 PM","apikey":"6a17e07541d4470480aaac6d14713970","format":"json","version":"4.01"},{"title":"CADILLACS FOR EVERYONE - Cadillacs For Everyone","venues":"Holy Trinity Rectory","types":"OD","streetAddress":"215 W 82ND ST New York NY ","city":"New York","state":"NY","lat":"40.7852818734432","long":"-73.9771060064311","days":"Thursdays","startTime":"7:00 PM","endTime":"8:00 PM","apikey":"6a17e07541d4470480aaac6d14713970","format":"json","version":"4.01"},{"title":"CAMPUS CHEER - Campus Cheer","venues":"Broadway Presbyterian Church","types":"C","streetAddress":"601 W 114TH ST New York NY ","city":"New York","state":"NY","lat":"40.806792168115","long":"-73.9648182706744","days":"Tuesdays","startTime":"12:30 PM","endTime":"1:30 PM","apikey":"6a17e07541d4470480aaac6d14713970","format":"json","version":"4.01"},{"title":"CENTRAL PARK WEST - Central Park West","venues":"Universalist Church","types":"C","streetAddress":"CENTRAL PARK WEST 76TH ST New York NY ","city":"New York","state":"NY","lat":"40.6639307188879","long":"-73.9382749875207","days":"Tuesdays","startTime":"8:15 PM","endTime":"9:30 PM","apikey":"6a17e07541d4470480aaac6d14713970","format":"json","version":"4.01"},{"title":"CHELSEA RIVERSIDE -","venues":"West Side YMCA at 63rd Street","types":"O","streetAddress":"5 W 63RD ST New York NY ","city":"New York","state":"NY","lat":"40.7706369459873","long":"-73.9801360925244","days":"Mondays","startTime":"7:30 PM","endTime":"8:45 PM","apikey":"6a17e07541d4470480aaac6d14713970","format":"json","version":"4.01"},{"title":"CHOCK FULL OF SOBRIETY -","venues":"Universalist Church","types":"C","streetAddress":"4 W 76TH ST New York NY ","city":"New York","state":"NY","lat":"40.7787527067962","long":"-73.9741749847811","days":"Fridays","startTime":"6:30 PM","endTime":"7:30 PM","apikey":"6a17e07541d4470480aaac6d14713970","format":"json","version":"4.01"},{"title":"CLASSEN HALL STEP MEETING  ( :I ) - Classen Hall","venues":"Good Shepherd Faith Church","types":"S","streetAddress":"152 W 66TH ST New York NY ","city":"New York","state":"NY","lat":"40.7745154157361","long":"-73.9839560220244","days":"Sundays","startTime":"6:15 PM","endTime":"7:45 PM","apikey":"6a17e07541d4470480aaac6d14713970","format":"json","version":"4.01"},{"title":"CLASSEN HALL     (:II) - Classen Hall    (:II)","venues":"Fourth Universalist Society","types":"B","streetAddress":"160 CENTRAL PARK W New York NY ","city":"New York","state":"NY","lat":"40.7788","long":"-73.9743","days":"Sundays","startTime":"6:00 PM","endTime":"7:00 PM","apikey":"6a17e07541d4470480aaac6d14713970","format":"json","version":"4.01"},{"title":"COLUMBUS AT FIVE - Columbus At Five","venues":"Second Presbyterian Church","types":"C","streetAddress":"3 W 95TH ST New York NY ","city":"New York","state":"NY","lat":"40.7911041586476","long":"-73.9652137815578","days":"Saturdays","startTime":"5:00 PM","endTime":"6:00 PM","apikey":"6a17e07541d4470480aaac6d14713970","format":"json","version":"4.01"},{"title":"EIGHTIETH STREET BEGINNERS -","venues":"All Angels Church","types":"C","streetAddress":"251 W 80TH ST New York NY ","city":"New York","state":"NY","lat":"40.7846682032335","long":"-73.9795816951321","days":"Fridays","startTime":"7:30 PM","endTime":"8:45 PM","apikey":"6a17e07541d4470480aaac6d14713970","format":"json","version":"4.01"},{"title":"FAST BREAK - Fast Break","venues":"Hargrave House","types":"C","streetAddress":"111 W 71ST ST New York NY ","city":"New York","state":"NY","lat":"40.7778588431339","long":"-73.9817266749472","days":"Fridays","startTime":"7:00 AM","endTime":"8:00 AM","apikey":"6a17e07541d4470480aaac6d14713970","format":"json","version":"4.01"},{"title":"FAST BREAK WEEKEND -","venues":"West Side YMCA","types":"C","streetAddress":"5 W 63RD ST New York NY ","city":"New York","state":"NY","lat":"40.7706369459873","long":"-73.9801360925244","days":"Sundays","startTime":"8:00 AM","endTime":"9:00 AM","apikey":"6a17e07541d4470480aaac6d14713970","format":"json","version":"4.01"},{"title":"FIRESIDE  (:II)  WEEKEND MEETINGS ONLY -","venues":"West Side YMCA","types":"S","streetAddress":"5 W 63RD ST New York NY ","city":"New York","state":"NY","lat":"40.7706369459873","long":"-73.9801360925244","days":"Saturdays","startTime":"10:30 AM","endTime":"11:30 AM","apikey":"6a17e07541d4470480aaac6d14713970","format":"json","version":"4.01"},{"title":"FIRST THINGS FIRST - First Things First","venues":"Holy Name Church","types":"OD","streetAddress":"207 W 96TH ST New York NY ","city":"New York","state":"NY","lat":"40.794213540618","long":"-73.9705213185661","days":"Mondays","startTime":"6:00 AM","endTime":"7:00 AM","apikey":"6a17e07541d4470480aaac6d14713970","format":"json","version":"4.01"},{"title":"FRIDAY NIGHT STEP -","venues":"Church of St. Matthew and St. Timothy","types":"S","streetAddress":"26 W 84TH ST New York NY ","city":"New York","state":"NY","lat":"40.7841938596871","long":"-73.9710515495699","days":"Fridays","startTime":"6:30 PM","endTime":"7:45 PM","apikey":"6a17e07541d4470480aaac6d14713970","format":"json","version":"4.01"},{"title":"GRUPO CAMINO REAL - Grupo Camino Real","venues":"Holy Name School","types":"OD","streetAddress":"200 W 97TH ST New York NY ","city":"New York","state":"NY","lat":"40.7946604892952","long":"-73.9699229082063","days":"Sundays","startTime":"4:30 PM","endTime":"5:30 PM","apikey":"6a17e07541d4470480aaac6d14713970","format":"json","version":"4.01"},{"title":"GRUPO DULCES 24 - Grupo Dulces 24","venues":"Grace House","types":"OD","streetAddress":"218 W 108TH ST New York NY ","city":"New York","state":"NY","lat":"40.8018805838188","long":"-73.9653228864665","days":"Mondays","startTime":"7:30 PM","endTime":"8:30 PM","apikey":"6a17e07541d4470480aaac6d14713970","format":"json","version":"4.01"},{"title":"GRUPO LUZ DIVINA -","venues":"Iglesia Metodista Grace","types":"O","streetAddress":"125 W 104TH ST New York NY ","city":"New York","state":"NY","lat":"40.7987406120379","long":"-73.9655262153158","days":"Tuesdays","startTime":"7:30 PM","endTime":"8:30 PM","apikey":"6a17e07541d4470480aaac6d14713970","format":"json","version":"4.01"},{"title":"HARGRAVE - Hargrave House","venues":"Hamilton House","types":"B","streetAddress":"141 W 73RD ST New York NY ","city":"New York","state":"NY","lat":"40.7786676707999","long":"-73.9794206828762","days":"Thursdays","startTime":"7:00 PM","endTime":"8:00 PM","apikey":"6a17e07541d4470480aaac6d14713970","format":"json","version":"4.01"},{"title":"LAMBDA WEST - Lambda West","venues":"Rutgers Church","types":"S","streetAddress":"236 W 73RD ST New York NY ","city":"New York","state":"NY","lat":"40.7797419736686","long":"-73.9824391794657","days":"Saturdays","startTime":"6:00 PM","endTime":"7:00 PM","apikey":"6a17e07541d4470480aaac6d14713970","format":"json","version":"4.01"},{"title":"MANHATTAN VALLEY - Manhattan Valley","venues":"West End Presbyterian Church","types":"B","streetAddress":"165 W 105TH ST New York NY ","city":"New York","state":"NY","lat":"40.7994268657992","long":"-73.9651796384307","days":"Wednesdays","startTime":"7:00 PM","endTime":"8:00 PM","apikey":"6a17e07541d4470480aaac6d14713970","format":"json","version":"4.01"},{"title":"METROPOLIS MEN'S MEETING -","venues":"Holy Name Church","types":"C","streetAddress":"207 W 96TH ST New York NY ","city":"New York","state":"NY","lat":"40.794213540618","long":"-73.9705213185661","days":"Sundays","startTime":"5:45 PM","endTime":"7:00 PM","apikey":"6a17e07541d4470480aaac6d14713970","format":"json","version":"4.01"},{"title":"MID-DAY CHEER - Mid-Day Cheer","venues":"Holy Name Church Rectory","types":"S","streetAddress":"207 W 96TH ST New York NY ","city":"New York","state":"NY","lat":"40.794213540618","long":"-73.9705213185661","days":"Fridays","startTime":"1:00 PM","endTime":"2:00 PM","apikey":"6a17e07541d4470480aaac6d14713970","format":"json","version":"4.01"},{"title":"MORNINGSIDE - Morningside","venues":"Advent Lutheran Church","types":"B","streetAddress":"2504 BROADWAY New York NY ","city":"New York","state":"NY","lat":"40.7928","long":"-73.9728","days":"Saturdays","startTime":"6:30 PM","endTime":"7:30 PM","apikey":"6a17e07541d4470480aaac6d14713970","format":"json","version":"4.01"},{"title":"MORNINGSIDE HEIGHTS BEGINNERS -","venues":"Church of Notre Dame","types":"B","streetAddress":"405 W 114TH ST New York NY ","city":"New York","state":"NY","lat":"40.8048256658321","long":"-73.9601273784998","days":"Wednesdays","startTime":"6:30 PM","endTime":"7:30 PM","apikey":"6a17e07541d4470480aaac6d14713970","format":"json","version":"4.01"},{"title":"NIGHT LIGHT - Night Light","venues":"St. Michael's Parish House","types":"S","streetAddress":"225 W 99TH ST New York NY ","city":"New York","state":"NY","lat":"40.7964563991192","long":"-73.9698142603959","days":"Mondays","startTime":"6:30 PM","endTime":"7:30 PM","apikey":"6a17e07541d4470480aaac6d14713970","format":"json","version":"4.01"},{"title":"NEVER TOO LATE - Never Too Late","venues":"West End Collegiate Church","types":"C","streetAddress":"368 W END AVE New York NY ","city":"New York","state":"NY","lat":"40.7832332498012","long":"-73.9817586862341","days":"Tuesdays","startTime":"7:30 PM","endTime":"8:30 PM","apikey":"6a17e07541d4470480aaac6d14713970","format":"json","version":"4.01"},{"title":"NIGHT LIGHT BEGINNERS - Night Light Beginners","venues":"Anshe Chesed Synagogue","types":"B","streetAddress":"251 W 100TH ST New York NY ","city":"New York","state":"NY","lat":"40.7975126103017","long":"-73.9703865089032","days":"Thursdays","startTime":"6:00 PM","endTime":"7:00 PM","apikey":"6a17e07541d4470480aaac6d14713970","format":"json","version":"4.01"},{"title":"NINETY-SIXTH STREET WORKSHOP - Ninety-Sixth Street Workshop","venues":"Holy Name Church","types":"T","streetAddress":"207 W 96TH ST New York NY ","city":"New York","state":"NY","lat":"40.794213540618","long":"-73.9705213185661","days":"Sundays","startTime":"10:00 PM","endTime":"11:00 PM","apikey":"6a17e07541d4470480aaac6d14713970","format":"json","version":"4.01"},{"title":"OXFORD  (:I) - Oxford","venues":"Church of St. Matthew & St. Timothy","types":"C","streetAddress":"26 W 84TH ST New York NY ","city":"New York","state":"NY","lat":"40.7841938596871","long":"-73.9710515495699","days":"s","startTime":"12:00 AM","endTime":"8:30 PM","apikey":"6a17e07541d4470480aaac6d14713970","format":"json","version":"4.01"},{"title":"PROMISES PROMISES - Promises Promises","venues":"West Side YMCA","types":"C","streetAddress":"5 W 63RD ST New York NY ","city":"New York","state":"NY","lat":"40.7706369459873","long":"-73.9801360925244","days":"Saturdays","startTime":"6:30 PM","endTime":"7:30 PM","apikey":"6a17e07541d4470480aaac6d14713970","format":"json","version":"4.01"},{"title":"RENEWAL WEST - Renewal West","venues":"St. Ignatius Church","types":"B","streetAddress":"552 W END AVE New York NY ","city":"New York","state":"NY","lat":"40.7893182932057","long":"-73.9773128676465","days":"Sundays","startTime":"7:00 PM","endTime":"8:00 PM","apikey":"6a17e07541d4470480aaac6d14713970","format":"json","version":"4.01"},{"title":"ROUTES -","venues":"Phoenix House","types":"B","streetAddress":"164 W 74 ST New York NY ","city":"New York","state":"NY","lat":"40.7794255507423","long":"-73.9797175099267","days":"Saturdays","startTime":"6:00 PM","endTime":"7:00 PM","apikey":"6a17e07541d4470480aaac6d14713970","format":"json","version":"4.01"},{"title":"RUDE AWAKENING - Rude Awakening","venues":"Volunteers of America","types":"C","streetAddress":"340 W 85TH ST New York NY ","city":"New York","state":"NY","lat":"40.7886669980932","long":"-73.979694394257","days":"Wednesdays","startTime":"8:30 PM","endTime":"9:30 PM","apikey":"6a17e07541d4470480aaac6d14713970","format":"json","version":"4.01"},{"title":"SMITHEREENS - Smithereens","venues":"West End Collegiate Church","types":"B","streetAddress":"368 W END AVE New York NY ","city":"New York","state":"NY","lat":"40.7832332498012","long":"-73.9817586862341","days":"Wednesdays","startTime":"7:00 PM","endTime":"8:00 PM","apikey":"6a17e07541d4470480aaac6d14713970","format":"json","version":"4.01"},{"title":"SOBER STEPPING - Sober Stepping","venues":"Blessed Sacrament Church Rectory","types":"S","streetAddress":"152 W 71ST ST New York NY ","city":"New York","state":"NY","lat":"40.7772016417146","long":"-73.9806325775781","days":"Saturdays","startTime":"6:30 PM","endTime":"7:30 PM","apikey":"6a17e07541d4470480aaac6d14713970","format":"json","version":"4.01"},{"title":"SUNDAY MEN'S TOPIC - Sunday Men's Topic","venues":"West Side YMCA","types":"C","streetAddress":"5 W 63RD ST New York NY ","city":"New York","state":"NY","lat":"40.7706369459873","long":"-73.9801360925244","days":"Sundays","startTime":"10:30 AM","endTime":"11:30 AM","apikey":"6a17e07541d4470480aaac6d14713970","format":"json","version":"4.01"},{"title":"SUNDAY WEST - Sunday West","venues":"","types":"C","streetAddress":"131 W 72ND ST New York NY ","city":"New York","state":"NY","lat":"40.7778619659525","long":"-73.9796338969511","days":"Sundays","startTime":"12:00 PM","endTime":"1:00 PM","apikey":"6a17e07541d4470480aaac6d14713970","format":"json","version":"4.01"},{"title":"TURN IT OVER - Turn It Over","venues":"Holy Name Church","types":"B","streetAddress":"207 W 96TH ST New York NY ","city":"New York","state":"NY","lat":"40.794213540618","long":"-73.9705213185661","days":"Thursdays","startTime":"3:30 PM","endTime":"4:30 PM","apikey":"6a17e07541d4470480aaac6d14713970","format":"json","version":"4.01"},{"title":"WAY OF LIFE - Way Of Life","venues":"Blessed Sacrament Church Rectory","types":"C","streetAddress":"152 W 71ST ST New York NY ","city":"New York","state":"NY","lat":"40.7772016417146","long":"-73.9806325775781","days":"Saturdays","startTime":"10:00 AM","endTime":"11:00 AM","apikey":"6a17e07541d4470480aaac6d14713970","format":"json","version":"4.01"},{"title":"WE AGNOSTICS OF NYC - We Agnostics Of NYC","venues":"Stephen Wise Free Synagogue","types":"C","streetAddress":"30 W 68TH ST New York NY ","city":"New York","state":"NY","lat":"40.7739244423422","long":"-73.9786943991706","days":"Thursdays","startTime":"6:15 PM","endTime":"7:15 PM","apikey":"6a17e07541d4470480aaac6d14713970","format":"json","version":"4.01"},{"title":"WE ARE NOT DOCTORS (WESTSIDE) -","venues":"Holy Name Church","types":"OD","streetAddress":"207 W 96TH ST New York NY ","city":"New York","state":"NY","lat":"40.794213540618","long":"-73.9705213185661","days":"Wednesdays","startTime":"4:45 PM","endTime":"5:45 PM","apikey":"6a17e07541d4470480aaac6d14713970","format":"json","version":"4.01"},{"title":"WESTSIDE 11th STEP MEDITATION WORKSHOP - Westside 11th Step Meditation Workshop","venues":"Addiction Institute","types":"C","streetAddress":"306 W 102ND ST New York NY ","city":"New York","state":"NY","lat":"40.7990296730168","long":"-73.970556588718","days":"Wednesdays","startTime":"7:00 PM","endTime":"8:00 PM","apikey":"6a17e07541d4470480aaac6d14713970","format":"json","version":"4.01"},{"title":"WESTSIDE STEP - Westside Step","venues":"Blessed Sacrament Church Rectory","types":"S","streetAddress":"152 W 71ST ST New York NY ","city":"New York","state":"NY","lat":"40.7772016417146","long":"-73.9806325775781","days":"Fridays","startTime":"7:00 PM","endTime":"8:00 PM","apikey":"6a17e07541d4470480aaac6d14713970","format":"json","version":"4.01"},{"title":"WESTSIDE YOUNG PEOPLE - Westside Young People","venues":"Church of St.Matthew & St. Timothy","types":"B","streetAddress":"26 W 84TH ST New York NY ","city":"New York","state":"NY","lat":"40.7841938596871","long":"-73.9710515495699","days":"Saturdays","startTime":"7:00 PM","endTime":"8:00 PM","apikey":"6a17e07541d4470480aaac6d14713970","format":"json","version":"4.01"},{"title":"WITHOUT A PRAYER -","venues":"Goddard Riverside Community Center","types":"OD","streetAddress":"595 COLUMBUS AVE New York NY ","city":"New York","state":"NY","lat":"40.7879974802396","long":"-73.9707623416289","days":"Saturdays","startTime":"5:00 PM","endTime":"6:00 PM","apikey":"6a17e07541d4470480aaac6d14713970","format":"json","version":"4.01"},{"title":"WOMEN LIVING SOBER - Women Living Sober","venues":"Trinity Halfway House","types":"C","streetAddress":"306 W 102ND ST New York NY ","city":"New York","state":"NY","lat":"40.7990296730168","long":"-73.970556588718","days":"Wednesdays","startTime":"9:00 AM","endTime":"10:00 AM","apikey":"6a17e07541d4470480aaac6d14713970","format":"json","version":"4.01"},{"title":"WOMEN WEST AA - Women West AA","venues":"Holy Trinity Church","types":"C","streetAddress":"213 W 82ND ST New York NY ","city":"New York","state":"NY","lat":"40.7852679542513","long":"-73.9770730367342","days":"Fridays","startTime":"7:00 PM","endTime":"8:00 PM","apikey":"6a17e07541d4470480aaac6d14713970","format":"json","version":"4.01"},{"title":"WOMEN'S BEGINNING LITERATURE -","venues":"Blessed Sacrament","types":"C","streetAddress":"152 W 71ST ST New York NY ","city":"New York","state":"NY","lat":"40.7772016417146","long":"-73.9806325775781","days":"Thursdays","startTime":"12:00 PM","endTime":"1:00 PM","apikey":"6a17e07541d4470480aaac6d14713970","format":"json","version":"4.01"},{"title":"WEST END - West End","venues":"Church of St. Paul & St. Andrew","types":"B","streetAddress":"263 W 86TH ST New York NY ","city":"New York","state":"NY","lat":"40.7885417036581","long":"-73.9768136256861","days":"Thursdays","startTime":"7:00 PM","endTime":"8:00 PM","apikey":"6a17e07541d4470480aaac6d14713970","format":"json","version":"4.01"},{"title":"WOMEN'S ELEVENTH STEP MEETING -","venues":"","types":"OD","streetAddress":"152 W 71ST ST New York NY ","city":"New York","state":"NY","lat":"40.7772016417146","long":"-73.9806325775781","days":"Mondays","startTime":"12:00 PM","endTime":"1:00 PM","apikey":"6a17e07541d4470480aaac6d14713970","format":"json","version":"4.01"},{"title":"WOMEN'S TELL IT LIKE IT IS - Women's Tell It Like It Is","venues":"Blessed Sacrament","types":"C","streetAddress":"152 W 71ST ST New York NY ","city":"New York","state":"NY","lat":"40.7772016417146","long":"-73.9806325775781","days":"Mondays","startTime":"12:00 PM","endTime":"1:15 PM","apikey":"6a17e07541d4470480aaac6d14713970","format":"json","version":"4.01"},{"title":"WOMEN'S WESTSIDE TOPIC - Women's Westside Topic","venues":"Universalist Church","types":"C","streetAddress":"160 CENTRAL PARK W New York NY ","city":"New York","state":"NY","lat":"40.7787794973326","long":"-73.9743080403139","days":"Tuesdays","startTime":"6:30 PM","endTime":"7:30 PM","apikey":"6a17e07541d4470480aaac6d14713970","format":"json","version":"4.01"},{"title":"WRITING SOBER - Writing Sober","venues":"Holy Name Church","types":"C","streetAddress":"207 W 96TH ST New York NY ","city":"New York","state":"NY","lat":"40.794213540618","long":"-73.9705213185661","days":"Wednesdays","startTime":"6:00 PM","endTime":"7:00 PM","apikey":"6a17e07541d4470480aaac6d14713970","format":"json","version":"4.01"}]