[{"title":"A NEW WAY OF LIVING - A New Way Of Living","venues":"Columbia Presbyterian Hospital","types":"S","streetAddress":"701 W 168TH STREET FORT WASHINGTON AVE New York NY ","city":"New York","state":"NY","lat":"40.8421349959684","long":"-73.9420058396877","days":"Thursdays","startTime":"12:00 PM","endTime":"1:00 PM","apikey":"6a17e07541d4470480aaac6d14713970","format":"json","version":"4.01"},{"title":"BRIDGE TO SOBRIETY (:I) - Bridge To Sobriety","venues":"Holy Rood Church","types":"OD","streetAddress":"715 W 179TH ST New York NY ","city":"New York","state":"NY","lat":"40.8490796467369","long":"-73.9373313893221","days":"Mondays","startTime":"10:00 AM","endTime":"11:00 AM","apikey":"6a17e07541d4470480aaac6d14713970","format":"json","version":"4.01"},{"title":"BRIDGE TO SOBRIETY (:II) -","venues":"Holy Rood Church","types":"S","streetAddress":"715 W 179TH ST New York NY ","city":"New York","state":"NY","lat":"40.8490796467369","long":"-73.9373313893221","days":"Sundays","startTime":"10:00 AM","endTime":"11:00 AM","apikey":"6a17e07541d4470480aaac6d14713970","format":"json","version":"4.01"},{"title":"DYCKMAN - Dyckman","venues":"St. Jude's School","types":"O","streetAddress":"431 W 204TH ST New York NY ","city":"New York","state":"NY","lat":"40.8620966104922","long":"-73.9190004613749","days":"Sundays","startTime":"12:00 PM","endTime":"1:00 PM","apikey":"6a17e07541d4470480aaac6d14713970","format":"json","version":"4.01"},{"title":"FOUND-A-WAY - Found-A-Way","venues":"Church of the Intercession","types":"C","streetAddress":"550 W 155TH ST New York NY ","city":"New York","state":"NY","lat":"40.8320961144213","long":"-73.944465684352","days":"Saturdays","startTime":"12:30 PM","endTime":"2:00 PM","apikey":"6a17e07541d4470480aaac6d14713970","format":"json","version":"4.01"},{"title":"GRUPO DESPERTAR - Grupo Despertar","venues":"Casita Esperanza","types":"C","streetAddress":"557 W 156TH ST New York NY ","city":"New York","state":"NY","lat":"40.8330065334804","long":"-73.9440819529521","days":"Wednesdays","startTime":"8:00 PM","endTime":"10:00 PM","apikey":"6a17e07541d4470480aaac6d14713970","format":"json","version":"4.01"},{"title":"GRUPO LA FLAMA PANAMERICANA - Grupo La Flama Panamericana","venues":"","types":"O","streetAddress":"35 THAYER ST New York NY ","city":"New York","state":"NY","lat":"40.8626229492642","long":"-73.9263833803336","days":"Sundays","startTime":"5:00 PM","endTime":"7:00 PM","apikey":"6a17e07541d4470480aaac6d14713970","format":"json","version":"4.01"},{"title":"GRUPO LIBERTAD - Grupo Libertad","venues":"Episcopal Holy Rood Church","types":"BB","streetAddress":"715 W 179TH ST New York NY ","city":"New York","state":"NY","lat":"40.8490796467369","long":"-73.9373313893221","days":"Tuesdays","startTime":"7:30 PM","endTime":"8:30 PM","apikey":"6a17e07541d4470480aaac6d14713970","format":"json","version":"4.01"},{"title":"GRUPO RECUPERACION - Grupo Recuperacion","venues":"Church Santa Rosa de Lima","types":"O","streetAddress":"502 WEST165TH ST New York NY ","city":"New York","state":"NY","lat":"40.6639307188879","long":"-73.9382749875207","days":"Sundays","startTime":"2:30 PM","endTime":"3:30 PM","apikey":"6a17e07541d4470480aaac6d14713970","format":"json","version":"4.01"},{"title":"GRUPO UN NUEVO AMANECER - Grupo Un Nuevo Amanecer","venues":"Our Lady Queen of Martyrs","types":"C","streetAddress":"91 ARDEN ST New York NY ","city":"New York","state":"NY","lat":"40.8639155612836","long":"-73.9282546578791","days":"Mondays","startTime":"8:00 PM","endTime":"9:00 PM","apikey":"6a17e07541d4470480aaac6d14713970","format":"json","version":"4.01"},{"title":"HAPPY DESTINY -","venues":"Holy Trinity Episcopal Church","types":"C","streetAddress":"20 CUMMING ST New York NY ","city":"New York","state":"NY","lat":"40.8664805601797","long":"-73.9264534882199","days":"Sundays","startTime":"7:30 PM","endTime":"8:30 PM","apikey":"6a17e07541d4470480aaac6d14713970","format":"json","version":"4.01"},{"title":"INWOOD FORT TRYON - Inwood-Ft. Tryon","venues":"Mount Washington Presbyterian Church","types":"B","streetAddress":"84 VERMILYEA AVE New York NY ","city":"New York","state":"NY","lat":"40.866","long":"-73.9231","days":"Saturdays","startTime":"11:00 AM","endTime":"12:00 PM","apikey":"6a17e07541d4470480aaac6d14713970","format":"json","version":"4.01"},{"title":"ISHAM PARK - Isham Park","venues":"Church of the Good Shepherd","types":"C","streetAddress":"620 ISHAM ST New York NY ","city":"New York","state":"NY","lat":"40.8692532379724","long":"-73.9206625253877","days":"Mondays","startTime":"8:00 PM","endTime":"9:00 PM","apikey":"6a17e07541d4470480aaac6d14713970","format":"json","version":"4.01"},{"title":"PROGRESS NOT PERFECTION -","venues":"COATHA Church on the Hill Senior Center","types":"OD","streetAddress":"2005 AMSTERDAM AVE New York NY ","city":"New York","state":"NY","lat":"40.8343","long":"-73.9408","days":"Fridays","startTime":"7:30 PM","endTime":"8:30 PM","apikey":"6a17e07541d4470480aaac6d14713970","format":"json","version":"4.01"},{"title":"THE MEN UPSTAIRS -","venues":"Our Saviour's Atonement Lutheran Church","types":"C","streetAddress":"178 BENNETT AVE New York NY ","city":"New York","state":"NY","lat":"40.856","long":"-73.9343","days":"Mondays","startTime":"8:00 PM","endTime":"9:00 PM","apikey":"6a17e07541d4470480aaac6d14713970","format":"json","version":"4.01"},{"title":"THE MISSING LINK - Missing Link","venues":"Our Saviour's Atonement Church","types":"BB","streetAddress":"178 BENNETT AVE New York NY ","city":"New York","state":"NY","lat":"40.8560152221363","long":"-73.9342776437758","days":"Fridays","startTime":"7:00 PM","endTime":"8:00 PM","apikey":"6a17e07541d4470480aaac6d14713970","format":"json","version":"4.01"},{"title":"UPPER MANHATTAN - Upper Manhattan","venues":"Our Lady Queen of Martyrs","types":"OD","streetAddress":"91 ARDEN ST New York NY ","city":"New York","state":"NY","lat":"40.8639","long":"-73.9283","days":"Thursdays","startTime":"7:30 PM","endTime":"8:30 PM","apikey":"6a17e07541d4470480aaac6d14713970","format":"json","version":"4.01"},{"title":"UPTOWN SATURDAY NIGHT - Uptown Saturday Night","venues":"Holy Trinity Church","types":"C","streetAddress":"20 CUMMINGS ST New York NY ","city":"New York","state":"NY","lat":"40.8665","long":"-73.9265","days":"Saturdays","startTime":"7:00 PM","endTime":"8:00 PM","apikey":"6a17e07541d4470480aaac6d14713970","format":"json","version":"4.01"},{"title":"WASHINGTON HEIGHTS                  (:I) - Washington Heights    (:I)","venues":"Holy Rood Church","types":"O","streetAddress":"715 W 179TH ST New York NY ","city":"New York","state":"NY","lat":"40.8490796467369","long":"-73.9373313893221","days":"Tuesdays","startTime":"7:30 PM","endTime":"8:30 PM","apikey":"6a17e07541d4470480aaac6d14713970","format":"json","version":"4.01"},{"title":"WASHINGTON HEIGHTS                 (:II) - Washington Heights    (:II)","venues":"Cornerstone Center","types":"C","streetAddress":"189TH STREET BENNETT AVE New York NY ","city":"New York","state":"NY","lat":"40.6639307188879","long":"-73.9382749875207","days":"Thursdays","startTime":"7:30 PM","endTime":"8:30 PM","apikey":"6a17e07541d4470480aaac6d14713970","format":"json","version":"4.01"},{"title":"WHAT WE ARE LIKE NOW -","venues":"The Corner Stone Center","types":"C","streetAddress":"178 BENNETT AVE New York NY ","city":"New York","state":"NY","lat":"40.8560152221363","long":"-73.9342776437758","days":"Sundays","startTime":"6:00 PM","endTime":"7:00 PM","apikey":"6a17e07541d4470480aaac6d14713970","format":"json","version":"4.01"},{"title":"WOMEN'S NITE - Women's Nite","venues":"Cornerstone Center","types":"BB","streetAddress":"178 BENNETT AVE New York NY ","city":"New York","state":"NY","lat":"40.8560152221363","long":"-73.9342776437758","days":"Mondays","startTime":"7:30 PM","endTime":"8:30 PM","apikey":"6a17e07541d4470480aaac6d14713970","format":"json","version":"4.01"}]